{"type": "FeatureCollection", "features": [{"type":"Feature","id":"osm:node:26612059","properties":{"name":"Texaco Sarphatistraat","amenity":"fuel"},"geometry":{"coordinates":[4.9243049,52.366928],"type":"Point"}},
{"type":"Feature","id":"osm:node:26654662","properties":{"name":"El Mousshine","amenity":"place_of_worship"},"geometry":{"coordinates":[4.9132723,52.3833541],"type":"Point"}},
{"type":"Feature","id":"osm:node:27465340","properties":{"addr:city":"Amsterdam","addr:housenumber":"89","addr:postcode":"1054HC","addr:street":"Overtoom","name":"ABN AMRO","amenity":"atm","address":"Overtoom 89, Amsterdam"},"geometry":{"coordinates":[4.8748206,52.3627969],"type":"Point"}},
{"type":"Feature","id":"osm:node:27589789","properties":{"addr:city":"Amsterdam","addr:postcode":"1071JH","addr:street":"Cornelis Schuytstraat","name":"ABN AMRO","amenity":"atm"},"geometry":{"coordinates":[4.8718783,52.3543157],"type":"Point"}},
{"type":"Feature","id":"osm:node:30118637","properties":{"addr:city":"Amsterdam","addr:housenumber":"11","addr:postcode":"1095 KG","addr:street":"IJburglaan","name":"Kriterion","amenity":"fuel","shop":"convenience","address":"IJburglaan 11, Amsterdam"},"geometry":{"coordinates":[4.9707321,52.3688826],"type":"Point"}},
{"type":"Feature","id":"osm:node:30170536","properties":{"addr:city":"Amsterdam","addr:housenumber":"4","addr:postcode":"1019BM","addr:street":"Oostelijke Handelskade","name":"Panama","amenity":"nightclub","address":"Oostelijke Handelskade 4, Amsterdam"},"geometry":{"coordinates":[4.9304264,52.3749358],"type":"Point"}},
{"type":"Feature","id":"osm:node:30241473","properties":{"name":"Eiburgh Snacks","amenity":"fast_food"},"geometry":{"coordinates":[4.9630011,52.3707789],"type":"Point"}},
{"type":"Feature","id":"osm:node:30250452","properties":{"addr:city":"Amsterdam","addr:housenumber":"56","addr:postcode":"1081 KG","addr:street":"Koenenkade","name":"Boerderij Meerzicht","amenity":"cafe","address":"Koenenkade 56, Amsterdam"},"geometry":{"coordinates":[4.8206896,52.3262661],"type":"Point"}},
{"type":"Feature","id":"osm:node:30337573","properties":{"addr:city":"Amsterdam","addr:housenumber":"36","addr:postcode":"1076 CM","addr:street":"Stadionplein","name":"Total","amenity":"fuel","address":"Stadionplein 36, Amsterdam"},"geometry":{"coordinates":[4.8569984,52.34266],"type":"Point"}},
{"type":"Feature","id":"osm:node:30731917","properties":{"addr:city":"Amsterdam","addr:housenumber":"40","addr:postcode":"1075BJ","addr:street":"Valeriusplein","name":"ABN AMRO","amenity":"atm","address":"Valeriusplein 40, Amsterdam"},"geometry":{"coordinates":[4.8639932,52.3517679],"type":"Point"}},
{"type":"Feature","id":"osm:node:30731918","properties":{"addr:city":"Amsterdam","addr:housenumber":"269","addr:postcode":"1075 CW","addr:street":"Koninginneweg","name":"Zwarte Fietsenplan","shop":"bicycle","address":"Koninginneweg 269, Amsterdam"},"geometry":{"coordinates":[4.8572723,52.3515806],"type":"Point"}},
{"type":"Feature","id":"osm:node:30993503","properties":{"addr:city":"Amsterdam","addr:housenumber":"5","addr:postcode":"1075 PR","addr:street":"Havenstraat","name":"BP","amenity":"fuel","address":"Havenstraat 5, Amsterdam"},"geometry":{"coordinates":[4.8553261,52.3490284],"type":"Point"}},
{"type":"Feature","id":"osm:node:31003813","properties":{"addr:city":"Landsmeer","addr:street":"IJdoornlaan","name":"BP Kadoelen","amenity":"fuel","shop":"convenience"},"geometry":{"coordinates":[4.9121767,52.4195943],"type":"Point"}},
{"type":"Feature","id":"osm:node:31190863","properties":{"addr:city":"Amsterdam","addr:housenumber":"16","addr:postcode":"1058PD","addr:street":"Hoofddorpplein","name":"ABN AMRO","amenity":"atm","address":"Hoofddorpplein 16, Amsterdam"},"geometry":{"coordinates":[4.850217,52.3517954],"type":"Point"}},
{"type":"Feature","id":"osm:node:31240632","properties":{"addr:city":"Amsterdam","addr:housenumber":"78","addr:postcode":"1057EE","addr:street":"Postjesweg","name":"ING","amenity":"atm","address":"Postjesweg 78, Amsterdam"},"geometry":{"coordinates":[4.8551131,52.3644215],"type":"Point"}},
{"type":"Feature","id":"osm:node:31726005","properties":{"addr:city":"Amsterdam","addr:housenumber":"581","addr:postcode":"1093LC","addr:street":"Eerste van Swindenstraat","name":"Bar Botanique Cafe Tropique","amenity":"pub","address":"Eerste van Swindenstraat 581, Amsterdam"},"geometry":{"coordinates":[4.9303211,52.3634368],"type":"Point"}},
{"type":"Feature","id":"osm:node:34032818","properties":{"addr:city":"Amsterdam","addr:street":"Ringweg Zuid","name":"Kiosk","amenity":"cafe"},"geometry":{"coordinates":[4.8735401,52.3392121],"type":"Point"}},
{"type":"Feature","id":"osm:node:34032821","properties":{"addr:city":"Amsterdam","addr:housenumber":"7","addr:postcode":"1017 PR","addr:street":"Leidseplein","name":"Burger King","amenity":"fast_food","address":"Leidseplein 7, Amsterdam"},"geometry":{"coordinates":[4.8835118,52.364178],"type":"Point"}},
{"type":"Feature","id":"osm:node:34032833","properties":{"name":"Burger King","amenity":"fast_food"},"geometry":{"coordinates":[4.8504678,52.392326],"type":"Point"}},
{"type":"Feature","id":"osm:node:34032847","properties":{"name":"Burger King","amenity":"fast_food"},"geometry":{"coordinates":[4.9181737,52.3463966],"type":"Point"}},
{"type":"Feature","id":"osm:node:34032851","properties":{"addr:city":"Amsterdam","addr:housenumber":"218","addr:postcode":"1012MX","addr:street":"Nieuwendijk","name":"Burger King","amenity":"fast_food","address":"Nieuwendijk 218, Amsterdam"},"geometry":{"coordinates":[4.8927282,52.3737828],"type":"Point"}},
{"type":"Feature","id":"osm:node:34032855","properties":{"addr:city":"Amsterdam","addr:housenumber":"15-17","addr:street":"Reguliersbreestraat","name":"Burger King","amenity":"fast_food","address":"Reguliersbreestraat 15-17, Amsterdam"},"geometry":{"coordinates":[4.8943072,52.3668263],"type":"Point"}},
{"type":"Feature","id":"osm:node:34032893","properties":{"name":"Burger King","amenity":"fast_food"},"geometry":{"coordinates":[4.9467114,52.292582],"type":"Point"}},
{"type":"Feature","id":"osm:node:34043796","properties":{"name":"Sizzling Wok","amenity":"restaurant"},"geometry":{"coordinates":[4.9475644,52.2929232],"type":"Point"}},
{"type":"Feature","id":"osm:node:34044093","properties":{"name":"De Roode Leeuw","amenity":"restaurant"},"geometry":{"coordinates":[4.8935952,52.3737497],"type":"Point"}},
{"type":"Feature","id":"osm:node:34044096","properties":{"addr:city":"Amsterdam","addr:housenumber":"9","addr:postcode":"1017CK","addr:street":"Muntplein","name":"McDonald's","amenity":"fast_food","address":"Muntplein 9, Amsterdam"},"geometry":{"coordinates":[4.8934827,52.3666856],"type":"Point"}},
{"type":"Feature","id":"osm:node:34044655","properties":{"addr:city":"Amsterdam","addr:housenumber":"526","addr:postcode":"1102DP","addr:street":"Bijlmerplein","name":"Albert Heijn","shop":"supermarket","address":"Bijlmerplein 526, Amsterdam"},"geometry":{"coordinates":[4.9550989,52.3156194],"type":"Point"}},
{"type":"Feature","id":"osm:node:34044674","properties":{"addr:city":"Amsterdam","addr:housenumber":"31","addr:postcode":"1062HP","addr:street":"Delflandplein","name":"Albert Heijn","shop":"supermarket","address":"Delflandplein 31, Amsterdam"},"geometry":{"coordinates":[4.8402692,52.34894],"type":"Point"}},
{"type":"Feature","id":"osm:node:34044679","properties":{"addr:city":"Amsterdam","addr:housenumber":"78","addr:postcode":"1065 LN","addr:street":"Sierplein","name":"Albert Heijn","shop":"supermarket","address":"Sierplein 78, Amsterdam"},"geometry":{"coordinates":[4.8267734,52.3549932],"type":"Point"}},
{"type":"Feature","id":"osm:node:34044693","properties":{"addr:city":"Amsterdam","addr:housenumber":"3","addr:postcode":"1092 JZ","addr:street":"Krugerplein","name":"Albert Heijn","shop":"supermarket","address":"Krugerplein 3, Amsterdam"},"geometry":{"coordinates":[4.9201804,52.3547176],"type":"Point"}},
{"type":"Feature","id":"osm:node:34044700","properties":{"addr:city":"Amsterdam","addr:housenumber":"33a","addr:postcode":"1071 AP","addr:street":"Van Baerlestraat","name":"Albert Heijn","shop":"supermarket","address":"Van Baerlestraat 33a, Amsterdam"},"geometry":{"coordinates":[4.8800081,52.3572549],"type":"Point"}},
{"type":"Feature","id":"osm:node:34044703","properties":{"addr:city":"Amsterdam","addr:housenumber":"150","addr:postcode":"1073 LV","addr:street":"Van Woustraat","name":"Albert Heijn","shop":"supermarket","address":"Van Woustraat 150, Amsterdam"},"geometry":{"coordinates":[4.9026013,52.3527583],"type":"Point"}},
{"type":"Feature","id":"osm:node:34044707","properties":{"addr:city":"Amsterdam","addr:housenumber":"159","addr:postcode":"1076 NN","addr:street":"Stadionweg","name":"Albert Heijn","shop":"supermarket","address":"Stadionweg 159, Amsterdam"},"geometry":{"coordinates":[4.8636889,52.3457535],"type":"Point"}},
{"type":"Feature","id":"osm:node:34044712","properties":{"addr:city":"Amsterdam","addr:housenumber":"47","addr:postcode":"1082KZ","addr:street":"Gelderlandplein","name":"Albert Heijn XL","shop":"supermarket","address":"Gelderlandplein 47, Amsterdam"},"geometry":{"coordinates":[4.8785321,52.3310249],"type":"Point"}},
{"type":"Feature","id":"osm:node:34044713","properties":{"addr:city":"Amsterdam","addr:housenumber":"149","addr:postcode":"1071 NB","addr:street":"Johannes Verhulststraat","name":"Albert Heijn","shop":"supermarket","address":"Johannes Verhulststraat 149, Amsterdam"},"geometry":{"coordinates":[4.8696893,52.3536441],"type":"Point"}},
{"type":"Feature","id":"osm:node:34044720","properties":{"addr:city":"Amsterdam","addr:housenumber":"65","addr:postcode":"1057 DW","addr:street":"Postjesweg","name":"Albert Heijn","shop":"supermarket","address":"Postjesweg 65, Amsterdam"},"geometry":{"coordinates":[4.855153,52.3640618],"type":"Point"}},
{"type":"Feature","id":"osm:node:34044730","properties":{"addr:city":"Amsterdam","addr:housenumber":"12","addr:postcode":"1062 AC","addr:street":"August Allebéplein","name":"Albert Heijn","shop":"supermarket","address":"August Allebéplein 12, Amsterdam"},"geometry":{"coordinates":[4.8375816,52.3636734],"type":"Point"}},
{"type":"Feature","id":"osm:node:34044747","properties":{"addr:city":"Amsterdam","addr:housenumber":"1065","addr:postcode":"1019 BW","addr:street":"Oostelijke Handelskade","name":"Albert Heijn","shop":"supermarket","address":"Oostelijke Handelskade 1065, Amsterdam"},"geometry":{"coordinates":[4.9386474,52.3739643],"type":"Point"}},
{"type":"Feature","id":"osm:node:34044748","properties":{"addr:city":"Amsterdam","addr:housenumber":"1","addr:postcode":"1013JZ","addr:street":"Haarlemmerdijk","name":"Albert Heijn","shop":"supermarket","address":"Haarlemmerdijk 1, Amsterdam"},"geometry":{"coordinates":[4.8888813,52.3816138],"type":"Point"}},
{"type":"Feature","id":"osm:node:34044750","properties":{"addr:city":"Amsterdam","addr:housenumber":"21","addr:postcode":"1016 DJ","addr:street":"Westermarkt","name":"Albert Heijn","shop":"supermarket","address":"Westermarkt 21, Amsterdam"},"geometry":{"coordinates":[4.8839268,52.3738812],"type":"Point"}},
{"type":"Feature","id":"osm:node:34044751","properties":{"addr:city":"Amsterdam","addr:housenumber":"79","addr:postcode":"1015 LW","addr:street":"Westerstraat","name":"Albert Heijn","shop":"supermarket","address":"Westerstraat 79, Amsterdam"},"geometry":{"coordinates":[4.8844536,52.3784456],"type":"Point"}},
{"type":"Feature","id":"osm:node:34044760","properties":{"addr:city":"Amsterdam","addr:housenumber":"101A","addr:postcode":"1095 AZ","addr:street":"Molukkenstraat","name":"Albert Heijn","shop":"supermarket","address":"Molukkenstraat 101A, Amsterdam"},"geometry":{"coordinates":[4.939828,52.3625655],"type":"Point"}},
{"type":"Feature","id":"osm:node:34044762","properties":{"addr:city":"Amsterdam","addr:housenumber":"91","addr:postcode":"1093 EZ","addr:street":"Eerste van Swindenstraat","name":"Albert Heijn","shop":"supermarket","address":"Eerste van Swindenstraat 91, Amsterdam"},"geometry":{"coordinates":[4.9256245,52.3624321],"type":"Point"}},
{"type":"Feature","id":"osm:node:34044767","properties":{"addr:city":"Amsterdam","addr:housenumber":"18","addr:postcode":"1012CR","addr:street":"Nieuwmarkt","name":"Albert Heijn","shop":"supermarket","address":"Nieuwmarkt 18, Amsterdam"},"geometry":{"coordinates":[4.8997302,52.3726884],"type":"Point"}},
{"type":"Feature","id":"osm:node:34044769","properties":{"addr:city":"Amsterdam","addr:housenumber":"113","addr:postcode":"1017 HJ","addr:street":"Vijzelstraat","name":"Albert Heijn","shop":"supermarket","address":"Vijzelstraat 113, Amsterdam"},"geometry":{"coordinates":[4.8922067,52.362843],"type":"Point"}},
{"type":"Feature","id":"osm:node:34044772","properties":{"addr:city":"Amsterdam","addr:housenumber":"13A","addr:postcode":"1016 TM","addr:street":"Elandsgracht","name":"Albert Heijn","shop":"supermarket","address":"Elandsgracht 13A, Amsterdam"},"geometry":{"coordinates":[4.8819811,52.3698566],"type":"Point"}},
{"type":"Feature","id":"osm:node:34044774","properties":{"addr:city":"Amsterdam","addr:housenumber":"116-124","addr:postcode":"1054 HM","addr:street":"Overtoom","name":"Albert Heijn","shop":"supermarket","address":"Overtoom 116-124, Amsterdam"},"geometry":{"coordinates":[4.8746398,52.3627631],"type":"Point"}},
{"type":"Feature","id":"osm:node:34045171","properties":{"addr:city":"Amsterdam","addr:housenumber":"41","addr:postcode":"1081CR","addr:street":"Bolestein","name":"ALDI","shop":"supermarket","address":"Bolestein 41, Amsterdam"},"geometry":{"coordinates":[4.8598999,52.3258987],"type":"Point"}},
{"type":"Feature","id":"osm:node:34045184","properties":{"name":"ALDI","shop":"supermarket"},"geometry":{"coordinates":[4.9086625,52.3438435],"type":"Point"}},
{"type":"Feature","id":"osm:node:34045185","properties":{"addr:city":"Amsterdam","addr:housenumber":"24","addr:postcode":"1017 ZX","addr:street":"Nieuwe Weteringstraat","name":"ALDI","shop":"supermarket","address":"Nieuwe Weteringstraat 24, Amsterdam"},"geometry":{"coordinates":[4.8902035,52.360578],"type":"Point"}},
{"type":"Feature","id":"osm:node:34045186","properties":{"name":"Aldi","shop":"supermarket"},"geometry":{"coordinates":[4.8886114,52.3500811],"type":"Point"}},
{"type":"Feature","id":"osm:node:34045704","properties":{"addr:city":"Amsterdam","addr:housenumber":"126","addr:postcode":"1106MC","addr:street":"Wisseloord","name":"Jumbo","shop":"supermarket","address":"Wisseloord 126, Amsterdam"},"geometry":{"coordinates":[4.9875496,52.2969452],"type":"Point"}},
{"type":"Feature","id":"osm:node:34045738","properties":{"name":"Jumbo","shop":"supermarket"},"geometry":{"coordinates":[4.93575,52.3991],"type":"Point"}},
{"type":"Feature","id":"osm:node:34045747","properties":{"name":"Jumbo Amsterdam Kastelenstraat","shop":"supermarket"},"geometry":{"coordinates":[4.8831902,52.326307],"type":"Point"}},
{"type":"Feature","id":"osm:node:34045748","properties":{"addr:city":"Amsterdam","addr:housenumber":"80","addr:postcode":"1091 GP","addr:street":"Wibautstraat","name":"Albert Heijn","shop":"supermarket","address":"Wibautstraat 80, Amsterdam"},"geometry":{"coordinates":[4.9107921,52.3557456],"type":"Point"}},
{"type":"Feature","id":"osm:node:34045751","properties":{"addr:housenumber":"808","addr:postcode":"1060TZ","addr:street":"Pieter Calandlaan","name":"Jumbo De Aker","shop":"supermarket"},"geometry":{"coordinates":[4.786632,52.3497202],"type":"Point"}},
{"type":"Feature","id":"osm:node:34045758","properties":{"addr:city":"Amsterdam","addr:housenumber":"43","addr:postcode":"1094EN","addr:street":"Celebesstraat","name":"Albert Heijn","shop":"supermarket","address":"Celebesstraat 43, Amsterdam"},"geometry":{"coordinates":[4.9316912,52.3632647],"type":"Point"}},
{"type":"Feature","id":"osm:node:34045759","properties":{"addr:city":"Diemen","addr:housenumber":"200","addr:postcode":"1111JD","addr:street":"Diemerplein","name":"Albert Heijn XL","shop":"supermarket","address":"Diemerplein 200, Diemen"},"geometry":{"coordinates":[4.9629445,52.342382],"type":"Point"}},
{"type":"Feature","id":"osm:node:34045955","properties":{"name":"Dirk vd Broek","shop":"supermarket"},"geometry":{"coordinates":[4.871,52.368],"type":"Point"}},
{"type":"Feature","id":"osm:node:34045960","properties":{"name":"Dirk van den Broek","shop":"supermarket"},"geometry":{"coordinates":[4.8778677,52.382555],"type":"Point"}},
{"type":"Feature","id":"osm:node:46226735","properties":{"name":"Jan van Gentstraat","amenity":"fuel"},"geometry":{"coordinates":[4.7949,52.33569],"type":"Point"}},
{"type":"Feature","id":"osm:node:46368261","properties":{"name":"Osdorperweg","amenity":"fuel"},"geometry":{"coordinates":[4.7827577,52.3677437],"type":"Point"}},
{"type":"Feature","id":"osm:node:46378325","properties":{"name":"Texaco Marnixstraat","amenity":"fuel"},"geometry":{"coordinates":[4.8769652,52.3699139],"type":"Point"}},
{"type":"Feature","id":"osm:node:59441638","properties":{"addr:housenumber":"1","addr:postcode":"1091LB","addr:street":"Krugerstraat","name":"Transvaal Alphega-apotheek","amenity":"pharmacy"},"geometry":{"coordinates":[4.9193777,52.3535608],"type":"Point"}},
{"type":"Feature","id":"osm:node:59597970","properties":{"addr:city":"Amsterdam","addr:housenumber":"6","addr:postcode":"1091KG","addr:street":"Beukenplein","name":"ING","amenity":"atm","address":"Beukenplein 6, Amsterdam"},"geometry":{"coordinates":[4.9175698,52.3574395],"type":"Point"}},
{"type":"Feature","id":"osm:node:59741747","properties":{"name":"Primera","amenity":"post_office","shop":"newsagent"},"geometry":{"coordinates":[4.9175215,52.3573806],"type":"Point"}},
{"type":"Feature","id":"osm:node:60868596","properties":{"name":"MacBike","amenity":"bicycle_rental"},"geometry":{"coordinates":[4.9023871,52.3670639],"type":"Point"}},
{"type":"Feature","id":"osm:node:60868602","properties":{"addr:city":"Amsterdam","addr:housenumber":"61","addr:postcode":"1018VN","addr:street":"Weesperstraat","name":"ABN AMRO","amenity":"atm","address":"Weesperstraat 61, Amsterdam"},"geometry":{"coordinates":[4.9061473,52.3649108],"type":"Point"}},
{"type":"Feature","id":"osm:node:60893354","properties":{"addr:city":"Amsterdam","addr:housenumber":"96","addr:postcode":"1011NS","addr:street":"Jodenbreestraat","name":"ABN AMRO","amenity":"atm","address":"Jodenbreestraat 96, Amsterdam"},"geometry":{"coordinates":[4.9024029,52.3689098],"type":"Point"}},
{"type":"Feature","id":"osm:node:65542468","properties":{"addr:housenumber":"92","addr:postcode":"1094NJ","addr:street":"Sumatrastraat","name":"Sumatra Apotheek","amenity":"pharmacy"},"geometry":{"coordinates":[4.9360633,52.3616998],"type":"Point"}},
{"type":"Feature","id":"osm:node:73066823","properties":{"addr:city":"Amsterdam","addr:housenumber":"245","addr:postcode":"1093 ER","addr:street":"Linnaeusstraat","name":"HEMA Amsterdam-Linnaeusstraat","shop":"department_store","address":"Linnaeusstraat 245, Amsterdam"},"geometry":{"coordinates":[4.9283378,52.355643],"type":"Point"}},
{"type":"Feature","id":"osm:node:84701653","properties":{"addr:city":"Amsterdam","addr:housenumber":"566","addr:postcode":"1017EM","addr:street":"Keizersgracht","name":"Keizersgrachtkerk","amenity":"place_of_worship","address":"Keizersgracht 566, Amsterdam"},"geometry":{"coordinates":[4.8880282,52.3645621],"type":"Point"}},
{"type":"Feature","id":"osm:node:94829654","properties":{"addr:city":"Amsterdam","addr:housenumber":"37A","addr:postcode":"1093EG","addr:street":"Linnaeusstraat","name":"Eeuwige Jeugd","amenity":"pub","address":"Linnaeusstraat 37A, Amsterdam"},"geometry":{"coordinates":[4.9247379,52.3614013],"type":"Point"}},
{"type":"Feature","id":"osm:node:94829656","properties":{"name":"Pata Negra","amenity":"restaurant"},"geometry":{"coordinates":[4.925171,52.3605996],"type":"Point"}},
{"type":"Feature","id":"osm:node:94829657","properties":{"addr:city":"Amsterdam","addr:housenumber":"29","addr:postcode":"1093 EE","addr:street":"Linnaeusstraat","name":"De Biertuin","amenity":"pub","address":"Linnaeusstraat 29, Amsterdam"},"geometry":{"coordinates":[4.92412,52.3622606],"type":"Point"}},
{"type":"Feature","id":"osm:node:95209891","properties":{"addr:housenumber":"31","addr:postcode":"1091KW","addr:street":"Maritzstraat","name":"Zizi Snackbar","amenity":"fast_food"},"geometry":{"coordinates":[4.9197977,52.3546056],"type":"Point"}},
{"type":"Feature","id":"osm:node:95209893","properties":{"addr:housenumber":"40","addr:postcode":"1092JZ","addr:street":"Krugerplein","name":"Café Oost","amenity":"pub"},"geometry":{"coordinates":[4.919777,52.3534384],"type":"Point"}},
{"type":"Feature","id":"osm:node:95209896","properties":{"addr:housenumber":"11","addr:street":"Krugerplein","name":"snackbar 't Snorretje","amenity":"fast_food"},"geometry":{"coordinates":[4.9203864,52.3544607],"type":"Point"}},
{"type":"Feature","id":"osm:node:95288389","properties":{"addr:housenumber":"22","addr:street":"Pretoriusstraat","name":"Meram","amenity":"restaurant"},"geometry":{"coordinates":[4.9255604,52.355989],"type":"Point"}},
{"type":"Feature","id":"osm:node:95288416","properties":{"addr:housenumber":"27","addr:postcode":"1092BB","addr:street":"Beukenplein","name":"Café Maxwell","amenity":"restaurant"},"geometry":{"coordinates":[4.9186348,52.3567889],"type":"Point"}},
{"type":"Feature","id":"osm:node:95288419","properties":{"addr:housenumber":"10","addr:postcode":"1091KG","addr:street":"Beukenplein","name":"ThaiCoon","amenity":"restaurant"},"geometry":{"coordinates":[4.9177233,52.3571259],"type":"Point"}},
{"type":"Feature","id":"osm:node:95288421","properties":{"name":"Mojo","amenity":"restaurant"},"geometry":{"coordinates":[4.9280958,52.3548104],"type":"Point"}},
{"type":"Feature","id":"osm:node:95288423","properties":{"name":"La Vallade","amenity":"restaurant"},"geometry":{"coordinates":[4.9269471,52.35425],"type":"Point"}},
{"type":"Feature","id":"osm:node:95288426","properties":{"name":"Café-Restaurant Dauphine","amenity":"restaurant"},"geometry":{"coordinates":[4.9173053,52.3483698],"type":"Point"}},
{"type":"Feature","id":"osm:node:103116496","properties":{"addr:city":"Amsterdam","addr:housenumber":"25","addr:postcode":"1017PS","addr:street":"Leidseplein","name":"ABN AMRO","amenity":"bank","address":"Leidseplein 25, Amsterdam"},"geometry":{"coordinates":[4.8828676,52.3633695],"type":"Point"}},
{"type":"Feature","id":"osm:node:117555154","properties":{"addr:city":"Amsterdam","addr:housenumber":"150","addr:postcode":"1013EZ","addr:street":"Haarlemmerstraat","name":"Stach","shop":"deli","address":"Haarlemmerstraat 150, Amsterdam"},"geometry":{"coordinates":[4.8896472,52.3813825],"type":"Point"}},
{"type":"Feature","id":"osm:node:117738519","properties":{"addr:city":"Amsterdam","addr:housenumber":"3","addr:postcode":"1013ZM","addr:street":"Spaarndammerdijk","name":"Albert Heijn","shop":"supermarket","address":"Spaarndammerdijk 3, Amsterdam"},"geometry":{"coordinates":[4.8778865,52.3915532],"type":"Point"}},
{"type":"Feature","id":"osm:node:118161878","properties":{"addr:city":"Amsterdam","addr:housenumber":"8","addr:postcode":"1059 CM","addr:street":"Anthony Fokkerweg","name":"Hansa","amenity":"fuel","address":"Anthony Fokkerweg 8, Amsterdam"},"geometry":{"coordinates":[4.8420644,52.3440655],"type":"Point"}},
{"type":"Feature","id":"osm:node:118161883","properties":{"addr:city":"Amsterdam","addr:housenumber":"50","addr:postcode":"1059 CP","addr:street":"Anthony Fokkerweg","name":"Praxis Amsterdam West","shop":"doityourself","address":"Anthony Fokkerweg 50, Amsterdam"},"geometry":{"coordinates":[4.8424415,52.3417428],"type":"Point"}},
{"type":"Feature","id":"osm:node:148575696","properties":{"amenity":"fuel"},"geometry":{"coordinates":[4.8707229,52.3827964],"type":"Point"}},
{"type":"Feature","id":"osm:node:148575706","properties":{"name":"Shell van Slingelandtstraat","amenity":"fuel"},"geometry":{"coordinates":[4.8647585,52.384094],"type":"Point"}},
{"type":"Feature","id":"osm:node:152788780","properties":{"addr:city":"Amsterdam","addr:housenumber":"39","addr:postcode":"1071 XA","addr:street":"Ruysdaelstraat","name":"Oud-Katholieke Kerk","amenity":"place_of_worship","address":"Ruysdaelstraat 39, Amsterdam"},"geometry":{"coordinates":[4.8845731,52.3541036],"type":"Point"}},
{"type":"Feature","id":"osm:node:154798709","properties":{"addr:city":"Amsterdam","addr:housenumber":"16","addr:postcode":"1062AC","addr:street":"August Allebéplein","name":"ABN AMRO","amenity":"atm","address":"August Allebéplein 16, Amsterdam"},"geometry":{"coordinates":[4.837399,52.3635658],"type":"Point"}},
{"type":"Feature","id":"osm:node:154980550","properties":{"addr:city":"Amsterdam","addr:housenumber":"68","addr:postcode":"1015 TL","addr:street":"Bloemgracht","name":"Bike City","amenity":"bicycle_rental","address":"Bloemgracht 68, Amsterdam"},"geometry":{"coordinates":[4.8813405,52.3750358],"type":"Point"}},
{"type":"Feature","id":"osm:node:178885387","properties":{"amenity":"atm"},"geometry":{"coordinates":[4.8519697,52.3511694],"type":"Point"}},
{"type":"Feature","id":"osm:node:178885395","properties":{"name":"Sing Sing","amenity":"restaurant"},"geometry":{"coordinates":[4.8633086,52.3511404],"type":"Point"}},
{"type":"Feature","id":"osm:node:178889189","properties":{"addr:city":"Amsterdam","addr:housenumber":"102-106","addr:postcode":"1071 BC","addr:street":"Van Baerlestraat","name":"Rabobank","amenity":"bank","address":"Van Baerlestraat 102-106, Amsterdam"},"geometry":{"coordinates":[4.880033,52.3556634],"type":"Point"}},
{"type":"Feature","id":"osm:node:178902471","properties":{"addr:city":"Amsterdam","addr:housenumber":"15","addr:postcode":"1017HD","addr:street":"Vijzelstraat","name":"Pathé de Munt","amenity":"cinema","address":"Vijzelstraat 15, Amsterdam"},"geometry":{"coordinates":[4.8934706,52.3664519],"type":"Point"}},
{"type":"Feature","id":"osm:node:216141846","properties":{"addr:city":"Amsterdam","addr:housenumber":"267","addr:postcode":"1017XJ","addr:street":"Weteringschans","name":"Café Kale","amenity":"pub","address":"Weteringschans 267, Amsterdam"},"geometry":{"coordinates":[4.8973945,52.3594947],"type":"Point"}},
{"type":"Feature","id":"osm:node:231513796","properties":{"name":"l'Affiche","amenity":"pub"},"geometry":{"coordinates":[4.8747722,52.3665772],"type":"Point"}},
{"type":"Feature","id":"osm:node:235194627","properties":{"name":"Esso","amenity":"fuel"},"geometry":{"coordinates":[4.9247972,52.3870279],"type":"Point"}},
{"type":"Feature","id":"osm:node:237168374","properties":{"shop":"florist"},"geometry":{"coordinates":[4.8912738,52.3509061],"type":"Point"}},
{"type":"Feature","id":"osm:node:237168376","properties":{"addr:city":"Amsterdam","addr:housenumber":"11","addr:postcode":"1072 JJ","addr:street":"Cornelis Troostplein","name":"Albert Heijn","shop":"supermarket","address":"Cornelis Troostplein 11, Amsterdam"},"geometry":{"coordinates":[4.892026,52.3510051],"type":"Point"}},
{"type":"Feature","id":"osm:node:237991359","properties":{"addr:city":"Amsterdam","addr:housenumber":"117","addr:postcode":"1079HB","addr:street":"Rijnstraat","name":"ABN AMRO","amenity":"atm","address":"Rijnstraat 117, Amsterdam"},"geometry":{"coordinates":[4.9064974,52.3438349],"type":"Point"}},
{"type":"Feature","id":"osm:node:237991365","properties":{"addr:city":"Amsterdam","addr:housenumber":"130","addr:postcode":"1079 HP","addr:street":"Rijnstraat","name":"Rabobank","amenity":"atm","address":"Rijnstraat 130, Amsterdam"},"geometry":{"coordinates":[4.905946,52.3437215],"type":"Point"}},
{"type":"Feature","id":"osm:node:238036251","properties":{"addr:city":"Amsterdam","addr:housenumber":"217-219","addr:postcode":"1074AP","addr:street":"Van Woustraat","name":"ABN AMRO","amenity":"atm","address":"Van Woustraat 217-219, Amsterdam"},"geometry":{"coordinates":[4.9040154,52.3501468],"type":"Point"}},
{"type":"Feature","id":"osm:node:238036267","properties":{"addr:city":"Amsterdam","addr:housenumber":"195-197","addr:postcode":"1074AN","addr:street":"Van Woustraat","name":"ING","amenity":"atm","address":"Van Woustraat 195-197, Amsterdam"},"geometry":{"coordinates":[4.9034914,52.3511152],"type":"Point"}},
{"type":"Feature","id":"osm:node:249327290","properties":{"addr:city":"Amsterdam","addr:housenumber":"338","addr:postcode":"1072 GN","addr:street":"Ceintuurbaan","name":"Rialto","amenity":"cinema","address":"Ceintuurbaan 338, Amsterdam"},"geometry":{"coordinates":[4.8939884,52.3529636],"type":"Point"}},
{"type":"Feature","id":"osm:node:249327301","properties":{"addr:city":"Amsterdam","addr:housenumber":"180","addr:postcode":"1072 LV","addr:street":"Ferdinand Bolstraat","name":"Gambrinus","amenity":"pub","address":"Ferdinand Bolstraat 180, Amsterdam"},"geometry":{"coordinates":[4.8912207,52.3512974],"type":"Point"}},
{"type":"Feature","id":"osm:node:249327302","properties":{"addr:housenumber":"51","addr:postcode":"1072 HN","addr:street":"Dusartstraat","name":"Fonk","amenity":"pub"},"geometry":{"coordinates":[4.8894806,52.3512963],"type":"Point"}},
{"type":"Feature","id":"osm:node:249327303","properties":{"addr:city":"Amsterdam","addr:housenumber":"7","addr:postcode":"1073AR","addr:street":"van der Helstplein","name":"cafe BUHRS","amenity":"pub","address":"van der Helstplein 7, Amsterdam"},"geometry":{"coordinates":[4.8950989,52.3518527],"type":"Point"}},
{"type":"Feature","id":"osm:node:249327304","properties":{"addr:city":"Amsterdam","addr:housenumber":"178","addr:postcode":"1072 LT","addr:street":"Ferdinand Bolstraat","name":"Volt","amenity":"restaurant","address":"Ferdinand Bolstraat 178, Amsterdam"},"geometry":{"coordinates":[4.8911767,52.3514961],"type":"Point"}},
{"type":"Feature","id":"osm:node:249327305","properties":{"addr:city":"Amsterdam","addr:housenumber":"93","addr:postcode":"1072 LD","addr:street":"Ferdinand Bolstraat","name":"HEMA","shop":"department_store","address":"Ferdinand Bolstraat 93, Amsterdam"},"geometry":{"coordinates":[4.8910916,52.3536647],"type":"Point"}},
{"type":"Feature","id":"osm:node:249327899","properties":{"name":"Dusart","amenity":"pub"},"geometry":{"coordinates":[4.8895103,52.3511266],"type":"Point"}},
{"type":"Feature","id":"osm:node:249327900","properties":{"name":"Kingfisher","amenity":"pub"},"geometry":{"coordinates":[4.8904847,52.3566892],"type":"Point"}},
{"type":"Feature","id":"osm:node:249401845","properties":{"addr:city":"Amsterdam","addr:housenumber":"11","addr:postcode":"1079 EK","addr:street":"Lekstraat","name":"de Plek","amenity":"pub","address":"Lekstraat 11, Amsterdam"},"geometry":{"coordinates":[4.9082519,52.3451944],"type":"Point"}},
{"type":"Feature","id":"osm:node:249406236","properties":{"addr:city":"Amsterdam","addr:housenumber":"87","addr:postcode":"1079 GZ","addr:street":"Rijnstraat","name":"Kong Kha","amenity":"restaurant","address":"Rijnstraat 87, Amsterdam"},"geometry":{"coordinates":[4.9058841,52.3452521],"type":"Point"}},
{"type":"Feature","id":"osm:node:249406237","properties":{"addr:housenumber":"101","addr:postcode":"1079HA","addr:street":"Rijnstraat","name":"I Trulli","amenity":"restaurant"},"geometry":{"coordinates":[4.9061298,52.3445658],"type":"Point"}},
{"type":"Feature","id":"osm:node:249406830","properties":{"addr:city":"Amsterdam","addr:housenumber":"95-99","addr:postcode":"1072 EX","addr:street":"Ceintuurbaan","name":"ING","amenity":"atm","address":"Ceintuurbaan 95-99, Amsterdam"},"geometry":{"coordinates":[4.891701,52.3530083],"type":"Point"}},
{"type":"Feature","id":"osm:node:249406831","properties":{"addr:city":"Amsterdam","addr:housenumber":"85-87","addr:postcode":"1072EW","addr:street":"Ceintuurbaan","name":"ABN AMRO","amenity":"atm","address":"Ceintuurbaan 85-87, Amsterdam"},"geometry":{"coordinates":[4.8906143,52.3528586],"type":"Point"}},
{"type":"Feature","id":"osm:node:249406832","properties":{"shop":"dry_cleaning"},"geometry":{"coordinates":[4.8892597,52.3519376],"type":"Point"}},
{"type":"Feature","id":"osm:node:249406833","properties":{"addr:city":"Amsterdam","addr:housenumber":"14a","addr:postcode":"1079 TX","addr:street":"Trompenburgstraat","name":"Praxis Amsterdam Zuid","shop":"doityourself","address":"Trompenburgstraat 14a, Amsterdam"},"geometry":{"coordinates":[4.9090488,52.3444071],"type":"Point"}},
{"type":"Feature","id":"osm:node:249442603","properties":{"addr:city":"Amsterdam","addr:housenumber":"148A","addr:postcode":"1078 AW","addr:street":"Amstelkade","name":"Pizzeria San Marco","amenity":"restaurant","address":"Amstelkade 148A, Amsterdam"},"geometry":{"coordinates":[4.8909926,52.3481204],"type":"Point"}},
{"type":"Feature","id":"osm:node:249442604","properties":{"addr:city":"Amsterdam","addr:housenumber":"4","addr:postcode":"1072JK","addr:street":"Cornelis Troostplein","name":"Le Pain Quotidien","amenity":"cafe","address":"Cornelis Troostplein 4, Amsterdam"},"geometry":{"coordinates":[4.8912435,52.3511182],"type":"Point"}},
{"type":"Feature","id":"osm:node:249442606","properties":{"addr:city":"Amsterdam","addr:housenumber":"2","addr:postcode":"1078 GK","addr:street":"Scheldestraat","name":"Avondwinkel De Schelde","shop":"convenience","address":"Scheldestraat 2, Amsterdam"},"geometry":{"coordinates":[4.8909411,52.3478813],"type":"Point"}},
{"type":"Feature","id":"osm:node:249442607","properties":{"addr:city":"Amsterdam","addr:housenumber":"11","addr:postcode":"1078 GD","addr:street":"Scheldestraat","name":"Zijwind fietsen","shop":"bicycle","address":"Scheldestraat 11, Amsterdam"},"geometry":{"coordinates":[4.8915576,52.3477947],"type":"Point"}},
{"type":"Feature","id":"osm:node:249442609","properties":{"name":"Dianto coiffure","shop":"hairdresser"},"geometry":{"coordinates":[4.8979641,52.346485],"type":"Point"}},
{"type":"Feature","id":"osm:node:249443115","properties":{"addr:city":"Amsterdam","addr:housenumber":"61","addr:postcode":"1079 GW","addr:street":"Rijnstraat","name":"Bartels","shop":"bakery","address":"Rijnstraat 61, Amsterdam"},"geometry":{"coordinates":[4.9056489,52.3458894],"type":"Point"}},
{"type":"Feature","id":"osm:node:249443116","properties":{"addr:city":"Amsterdam","addr:housenumber":"67","addr:postcode":"1079 GW","addr:street":"Rijnstraat","name":"Kong Ming","amenity":"restaurant","address":"Rijnstraat 67, Amsterdam"},"geometry":{"coordinates":[4.9056866,52.3457197],"type":"Point"}},
{"type":"Feature","id":"osm:node:249443117","properties":{"name":"Bertram Brood","shop":"bakery"},"geometry":{"coordinates":[4.9054191,52.3450671],"type":"Point"}},
{"type":"Feature","id":"osm:node:249576661","properties":{"name":"Dirk van den Broek","shop":"supermarket"},"geometry":{"coordinates":[4.9046879,52.34678],"type":"Point"}},
{"type":"Feature","id":"osm:node:249628961","properties":{"name":"Papa","amenity":"restaurant"},"geometry":{"coordinates":[4.9047332,52.3482353],"type":"Point"}},
{"type":"Feature","id":"osm:node:249628962","properties":{"name":"Phukradung","amenity":"restaurant"},"geometry":{"coordinates":[4.9034904,52.3514674],"type":"Point"}},
{"type":"Feature","id":"osm:node:249628963","properties":{"name":"Frango","amenity":"restaurant"},"geometry":{"coordinates":[4.9027669,52.353296],"type":"Point"}},
{"type":"Feature","id":"osm:node:249628964","properties":{"name":"De Sloterplas","shop":"video"},"geometry":{"coordinates":[4.9018801,52.3537294],"type":"Point"}},
{"type":"Feature","id":"osm:node:249628966","properties":{"name":"Ouke Baas","amenity":"car_rental"},"geometry":{"coordinates":[4.9022672,52.3538204],"type":"Point"}},
{"type":"Feature","id":"osm:node:249628967","properties":{"addr:city":"Amsterdam","addr:housenumber":"81-83","addr:postcode":"1074 AD","addr:street":"Van Woustraat","name":"Etos","shop":"chemist","address":"Van Woustraat 81-83, Amsterdam"},"geometry":{"coordinates":[4.9012563,52.3550436],"type":"Point"}},
{"type":"Feature","id":"osm:node:249628968","properties":{"addr:city":"Amsterdam","addr:housenumber":"90","addr:postcode":"1073LP","addr:street":"Van Woustraat","name":"ING","amenity":"atm","address":"Van Woustraat 90, Amsterdam"},"geometry":{"coordinates":[4.9007184,52.354809],"type":"Point"}},
{"type":"Feature","id":"osm:node:249628969","properties":{"name":"Sarphaat","amenity":"pub"},"geometry":{"coordinates":[4.8992429,52.3543825],"type":"Point"}},
{"type":"Feature","id":"osm:node:249628972","properties":{"name":"Puyck","amenity":"restaurant"},"geometry":{"coordinates":[4.8937863,52.3532883],"type":"Point"}},
{"type":"Feature","id":"osm:node:249628973","properties":{"name":"Stigter","amenity":"pub"},"geometry":{"coordinates":[4.8941377,52.3529885],"type":"Point"}},
{"type":"Feature","id":"osm:node:249628974","properties":{"addr:city":"Amsterdam","addr:housenumber":"119","addr:postcode":"1072 EZ","addr:street":"Ceintuurbaan","name":"Kam Kee","amenity":"restaurant","address":"Ceintuurbaan 119, Amsterdam"},"geometry":{"coordinates":[4.892503,52.3531295],"type":"Point"}},
{"type":"Feature","id":"osm:node:249628975","properties":{"addr:city":"Amsterdam","addr:housenumber":"278","addr:postcode":"1072 GJ","addr:street":"Ceintuurbaan","name":"Ron Verboom","shop":"bakery","address":"Ceintuurbaan 278, Amsterdam"},"geometry":{"coordinates":[4.891034,52.3525838],"type":"Point"}},
{"type":"Feature","id":"osm:node:250831991","properties":{"name":"Bax","amenity":"pub"},"geometry":{"coordinates":[4.8679756,52.3656085],"type":"Point"}},
{"type":"Feature","id":"osm:node:251127910","properties":{"addr:housenumber":"59-72","addr:street":"Prins Hendrikkade","name":"Vermeer","amenity":"restaurant"},"geometry":{"coordinates":[4.9004724,52.3764859],"type":"Point"}},
{"type":"Feature","id":"osm:node:251127914","properties":{"addr:city":"Amsterdam","addr:housenumber":"1","addr:postcode":"1012AN","addr:street":"Zeedijk","name":"In't Aepjen","amenity":"pub","address":"Zeedijk 1, Amsterdam"},"geometry":{"coordinates":[4.9001456,52.3763121],"type":"Point"}},
{"type":"Feature","id":"osm:node:251127915","properties":{"addr:city":"Amsterdam","addr:housenumber":"4","addr:postcode":"1012AX","addr:street":"Zeedijk","name":"Skek","amenity":"pub","address":"Zeedijk 4, Amsterdam"},"geometry":{"coordinates":[4.9001777,52.3760606],"type":"Point"}},
{"type":"Feature","id":"osm:node:251127917","properties":{"addr:city":"Amsterdam","addr:housenumber":"21","addr:postcode":"1012AP","addr:street":"Zeedijk","name":"Geheim van de Smidt","amenity":"pub","address":"Zeedijk 21, Amsterdam"},"geometry":{"coordinates":[4.9007535,52.3757843],"type":"Point"}},
{"type":"Feature","id":"osm:node:251147159","properties":{"name":"Park Plaza Brasserie","amenity":"restaurant"},"geometry":{"coordinates":[4.8979096,52.3770851],"type":"Point"}},
{"type":"Feature","id":"osm:node:251147168","properties":{"amenity":"bureau_de_change"},"geometry":{"coordinates":[4.8974711,52.3767591],"type":"Point"}},
{"type":"Feature","id":"osm:node:251147169","properties":{"amenity":"bureau_de_change"},"geometry":{"coordinates":[4.8972971,52.3766225],"type":"Point"}},
{"type":"Feature","id":"osm:node:251147172","properties":{"amenity":"bureau_de_change"},"geometry":{"coordinates":[4.8966906,52.3761622],"type":"Point"}},
{"type":"Feature","id":"osm:node:251147176","properties":{"name":"Bravi Ragazzi","amenity":"restaurant"},"geometry":{"coordinates":[4.8963754,52.3759544],"type":"Point"}},
{"type":"Feature","id":"osm:node:251147180","properties":{"addr:housenumber":"50","addr:street":"Damrak","name":"Stock","amenity":"cafe"},"geometry":{"coordinates":[4.8956474,52.3753858],"type":"Point"}},
{"type":"Feature","id":"osm:node:251149362","properties":{"name":"Pott","amenity":"bureau_de_change"},"geometry":{"coordinates":[4.8933733,52.3736063],"type":"Point"}},
{"type":"Feature","id":"osm:node:251149365","properties":{"addr:city":"Amsterdam","addr:housenumber":"7","addr:postcode":"1012 AB","addr:street":"Stationsplein","name":"Albert Heijn to go","shop":"convenience","address":"Stationsplein 7, Amsterdam"},"geometry":{"coordinates":[4.9013776,52.37807],"type":"Point"}},
{"type":"Feature","id":"osm:node:251149367","properties":{"addr:city":"Amsterdam","addr:housenumber":"2","addr:postcode":"1012NP","addr:street":"Dam","name":"ABN AMRO","amenity":"bank","address":"Dam 2, Amsterdam"},"geometry":{"coordinates":[4.8930266,52.3733616],"type":"Point"}},
{"type":"Feature","id":"osm:node:251149368","properties":{"addr:city":"Amsterdam","addr:housenumber":"66","addr:postcode":"1012LM","addr:street":"Damrak","amenity":"atm","address":"Damrak 66, Amsterdam"},"geometry":{"coordinates":[4.894309,52.3742985],"type":"Point"}},
{"type":"Feature","id":"osm:node:251150451","properties":{"name":"Players","amenity":"pub"},"geometry":{"coordinates":[4.8955245,52.3737173],"type":"Point"}},
{"type":"Feature","id":"osm:node:251150452","properties":{"addr:city":"Amsterdam","addr:housenumber":"141","addr:postcode":"1012JB","addr:street":"Warmoesstraat","name":"Condomerie","shop":"erotic","address":"Warmoesstraat 141, Amsterdam"},"geometry":{"coordinates":[4.8958719,52.373679],"type":"Point"}},
{"type":"Feature","id":"osm:node:251150454","properties":{"addr:city":"Amsterdam","addr:housenumber":"117","addr:street":"Warmoesstraat","name":"Durty Nelly's","amenity":"pub","address":"Warmoesstraat 117, Amsterdam"},"geometry":{"coordinates":[4.8965373,52.3741125],"type":"Point"}},
{"type":"Feature","id":"osm:node:251150709","properties":{"addr:city":"Amsterdam","addr:housenumber":"78","addr:postcode":"1093GH","addr:street":"Eerste van Swindenstraat","name":"Rabobank","amenity":"atm","address":"Eerste van Swindenstraat 78, Amsterdam"},"geometry":{"coordinates":[4.9285077,52.3627533],"type":"Point"}},
{"type":"Feature","id":"osm:node:251150711","properties":{"name":"Irish Pub Slainte","amenity":"pub"},"geometry":{"coordinates":[4.8973185,52.3746948],"type":"Point"}},
{"type":"Feature","id":"osm:node:251150739","properties":{"amenity":"atm"},"geometry":{"coordinates":[4.9285221,52.3621936],"type":"Point"}},
{"type":"Feature","id":"osm:node:251150887","properties":{"name":"Sweet Asia","amenity":"restaurant"},"geometry":{"coordinates":[4.9289933,52.3631525],"type":"Point"}},
{"type":"Feature","id":"osm:node:251154465","properties":{"addr:street":"Oosterdokskade","name":"OBA Oosterdok","amenity":"library"},"geometry":{"coordinates":[4.9081983,52.3762463],"type":"Point"}},
{"type":"Feature","id":"osm:node:251156412","properties":{"name":"De Groene Olifant","amenity":"pub"},"geometry":{"coordinates":[4.9200038,52.3640109],"type":"Point"}},
{"type":"Feature","id":"osm:node:251165502","properties":{"addr:city":"Amsterdam","addr:housenumber":"123","addr:postcode":"1011EN","addr:street":"Geldersekade","name":"Cafe Stevens","amenity":"pub","address":"Geldersekade 123, Amsterdam"},"geometry":{"coordinates":[4.9011235,52.3728379],"type":"Point"}},
{"type":"Feature","id":"osm:node:251165503","properties":{"name":"Nam Kee","amenity":"restaurant"},"geometry":{"coordinates":[4.9011882,52.3729769],"type":"Point"}},
{"type":"Feature","id":"osm:node:251165505","properties":{"name":"Cotton Club","amenity":"pub"},"geometry":{"coordinates":[4.9010196,52.3726299],"type":"Point"}},
{"type":"Feature","id":"osm:node:251165506","properties":{"name":"Bern","amenity":"pub"},"geometry":{"coordinates":[4.9009348,52.3724859],"type":"Point"}},
{"type":"Feature","id":"osm:node:251165507","properties":{"addr:city":"Amsterdam","addr:housenumber":"15","addr:postcode":"1012CR","addr:street":"Nieuwmarkt","name":"Café Fonteyn","amenity":"pub","address":"Nieuwmarkt 15, Amsterdam"},"geometry":{"coordinates":[4.9008776,52.3723885],"type":"Point"}},
{"type":"Feature","id":"osm:node:251168503","properties":{"addr:housenumber":"27","addr:street":"Nieuwmarkt","name":"Oriental","shop":"supermarket"},"geometry":{"coordinates":[4.9001954,52.3719917],"type":"Point"}},
{"type":"Feature","id":"osm:node:251168504","properties":{"addr:city":"Amsterdam","addr:housenumber":"16","addr:postcode":"1012 CT","addr:street":"Kloveniersburgwal","name":"IJssalon Tofani","amenity":"fast_food","address":"Kloveniersburgwal 16, Amsterdam"},"geometry":{"coordinates":[4.8990709,52.3718562],"type":"Point"}},
{"type":"Feature","id":"osm:node:251168505","properties":{"addr:city":"Amsterdam","addr:housenumber":"14","addr:postcode":"1012 CT","addr:street":"Kloveniersburgwal","name":"Song Kwae","amenity":"restaurant","address":"Kloveniersburgwal 14, Amsterdam"},"geometry":{"coordinates":[4.8991163,52.371915],"type":"Point"}},
{"type":"Feature","id":"osm:node:251168506","properties":{"addr:city":"Amsterdam","addr:street":"Kloveniersburgwal","name":"Temple Bar","amenity":"pub"},"geometry":{"coordinates":[4.8993518,52.3721371],"type":"Point"}},
{"type":"Feature","id":"osm:node:251168507","properties":{"addr:city":"Amsterdam","addr:housenumber":"6-8","addr:postcode":"1012 CT","addr:street":"Kloveniersburgwal","name":"De Bekeerde Suster","amenity":"pub","address":"Kloveniersburgwal 6-8, Amsterdam"},"geometry":{"coordinates":[4.8992627,52.3720321],"type":"Point"}},
{"type":"Feature","id":"osm:node:251168509","properties":{"name":"Café 't Loosje","amenity":"pub"},"geometry":{"coordinates":[4.8995,52.3723799],"type":"Point"}},
{"type":"Feature","id":"osm:node:251168510","properties":{"addr:city":"Amsterdam","addr:street":"Nieuwmarkt","name":"Café Del Mondo","amenity":"pub"},"geometry":{"coordinates":[4.8995457,52.3724585],"type":"Point"}},
{"type":"Feature","id":"osm:node:251168511","properties":{"addr:city":"Amsterdam","addr:housenumber":"26","addr:postcode":"1012CS","addr:street":"Nieuwmarkt","name":"Down Town Burger","amenity":"fast_food","address":"Nieuwmarkt 26, Amsterdam"},"geometry":{"coordinates":[4.8995992,52.3724981],"type":"Point"}},
{"type":"Feature","id":"osm:node:251168512","properties":{"name":"Toko Joyce","amenity":"fast_food","shop":"beverages"},"geometry":{"coordinates":[4.8994598,52.3723193],"type":"Point"}},
{"type":"Feature","id":"osm:node:251169840","properties":{"name":"Café Poco Loco","amenity":"pub"},"geometry":{"coordinates":[4.8996205,52.3725409],"type":"Point"}},
{"type":"Feature","id":"osm:node:251169841","properties":{"addr:city":"Amsterdam","addr:housenumber":"20","addr:postcode":"1012CR","addr:street":"Nieuwmarkt","name":"Rabobank","amenity":"atm","address":"Nieuwmarkt 20, Amsterdam"},"geometry":{"coordinates":[4.8996866,52.3726432],"type":"Point"}},
{"type":"Feature","id":"osm:node:251169842","properties":{"addr:housenumber":"16","addr:postcode":"1012CR","addr:street":"Nieuwmarkt","name":"Geweaght Café","amenity":"pub"},"geometry":{"coordinates":[4.8997837,52.3727127],"type":"Point"}},
{"type":"Feature","id":"osm:node:251171043","properties":{"name":"Coffeeshop Rock-it","amenity":"cafe"},"geometry":{"coordinates":[4.8998649,52.3728646],"type":"Point"}},
{"type":"Feature","id":"osm:node:251171044","properties":{"name":"Chao Phraya","amenity":"restaurant"},"geometry":{"coordinates":[4.8998889,52.3729121],"type":"Point"}},
{"type":"Feature","id":"osm:node:251171045","properties":{"name":"Alexander","shop":"convenience"},"geometry":{"coordinates":[4.8999239,52.3729579],"type":"Point"}},
{"type":"Feature","id":"osm:node:251177425","properties":{"name":"A Fusion","amenity":"restaurant"},"geometry":{"coordinates":[4.9001515,52.3732425],"type":"Point"}},
{"type":"Feature","id":"osm:node:251177427","properties":{"addr:housenumber":"111-113","addr:postcode":"1012 AV","addr:street":"Zeedijk","name":"Nam Kee","amenity":"restaurant"},"geometry":{"coordinates":[4.9003096,52.3737013],"type":"Point"}},
{"type":"Feature","id":"osm:node:251177431","properties":{"name":"Zeilmakerij Koster","shop":"outdoor"},"geometry":{"coordinates":[4.9017417,52.3741288],"type":"Point"}},
{"type":"Feature","id":"osm:node:251177433","properties":{"name":"Ristorante Italiano Piccolo Mondo","amenity":"restaurant"},"geometry":{"coordinates":[4.9017078,52.3740711],"type":"Point"}},
{"type":"Feature","id":"osm:node:251177434","properties":{"addr:city":"Amsterdam","addr:housenumber":"78","addr:postcode":"1012CR","addr:street":"Zeedijk","name":"Wing Kee","amenity":"restaurant","address":"Zeedijk 78, Amsterdam"},"geometry":{"coordinates":[4.9004584,52.3744999],"type":"Point"}},
{"type":"Feature","id":"osm:node:251177436","properties":{"addr:housenumber":"82","addr:street":"Geldersekade","name":"Toko Dun Yong","shop":"supermarket"},"geometry":{"coordinates":[4.9008902,52.3743731],"type":"Point"}},
{"type":"Feature","id":"osm:node:251187545","properties":{"addr:city":"Amsterdam","addr:housenumber":"7","addr:postcode":"1012CR","addr:street":"Nieuwmarkt","name":"Rabobank","amenity":"atm","address":"Nieuwmarkt 7, Amsterdam"},"geometry":{"coordinates":[4.9010043,52.372576],"type":"Point"}},
{"type":"Feature","id":"osm:node:251187546","properties":{"name":"Casa Rosso","amenity":"nightclub"},"geometry":{"coordinates":[4.8977959,52.3726552],"type":"Point"}},
{"type":"Feature","id":"osm:node:251319857","properties":{"name":"Total Flierbos","amenity":"fuel"},"geometry":{"coordinates":[4.9640907,52.3156188],"type":"Point"}},
{"type":"Feature","id":"osm:node:251319863","properties":{"name":"Total Ganzenhoef","amenity":"fuel"},"geometry":{"coordinates":[4.9630134,52.3176029],"type":"Point"}},
{"type":"Feature","id":"osm:node:251528265","properties":{"name":"Tours & Tickets","amenity":"ice_cream","shop":"ticket"},"geometry":{"coordinates":[4.8926487,52.372343],"type":"Point"}},
{"type":"Feature","id":"osm:node:251528267","properties":{"addr:city":"Amsterdam","addr:housenumber":"108-110","addr:postcode":"1012LA","addr:street":"Rokin","name":"ING","amenity":"atm","address":"Rokin 108-110, Amsterdam"},"geometry":{"coordinates":[4.8919207,52.369144],"type":"Point"}},
{"type":"Feature","id":"osm:node:251528269","properties":{"addr:city":"Amsterdam","addr:housenumber":"11","addr:postcode":"1017CT","addr:street":"Rembrandtplein","name":"Escape","amenity":"nightclub","address":"Rembrandtplein 11, Amsterdam"},"geometry":{"coordinates":[4.8963193,52.3664188],"type":"Point"}},
{"type":"Feature","id":"osm:node:251528272","properties":{"addr:city":"Amsterdam","addr:housenumber":"22A","addr:postcode":"1017CN","addr:street":"Reguliersbreestraat","name":"Albert Heijn to go","shop":"convenience","address":"Reguliersbreestraat 22A, Amsterdam"},"geometry":{"coordinates":[4.8944382,52.3665835],"type":"Point"}},
{"type":"Feature","id":"osm:node:251528275","properties":{"name":"Club Smokey","amenity":"pub"},"geometry":{"coordinates":[4.8962329,52.3656246],"type":"Point"}},
{"type":"Feature","id":"osm:node:251528277","properties":{"addr:city":"Amsterdam","addr:housenumber":"25","addr:postcode":"1017CL","addr:street":"Reguliersbreestraat","name":"El Torado Grill","amenity":"restaurant","address":"Reguliersbreestraat 25, Amsterdam"},"geometry":{"coordinates":[4.8947159,52.3666908],"type":"Point"}},
{"type":"Feature","id":"osm:node:251528279","properties":{"name":"Kitchen & Bar Van Rijn","amenity":"pub"},"geometry":{"coordinates":[4.89674,52.3664515],"type":"Point"}},
{"type":"Feature","id":"osm:node:251528280","properties":{"name":"Coffeeshop Smokey","amenity":"pub"},"geometry":{"coordinates":[4.8963993,52.3656427],"type":"Point"}},
{"type":"Feature","id":"osm:node:251528283","properties":{"addr:city":"Amsterdam","addr:housenumber":"27","addr:postcode":"1017CL","addr:street":"Reguliersbreestraat","name":"Subway","amenity":"fast_food","address":"Reguliersbreestraat 27, Amsterdam"},"geometry":{"coordinates":[4.8948042,52.3666732],"type":"Point"}},
{"type":"Feature","id":"osm:node:251528287","properties":{"name":"Rain","amenity":"cafe"},"geometry":{"coordinates":[4.8972735,52.3657475],"type":"Point"}},
{"type":"Feature","id":"osm:node:251528291","properties":{"name":"The Old Bell","amenity":"pub"},"geometry":{"coordinates":[4.897453,52.365769],"type":"Point"}},
{"type":"Feature","id":"osm:node:251823631","properties":{"addr:city":"Amsterdam","addr:housenumber":"20","addr:postcode":"1012CP","addr:street":"Nieuwe Doelenstraat","name":"De Jaren","amenity":"restaurant","address":"Nieuwe Doelenstraat 20, Amsterdam"},"geometry":{"coordinates":[4.8953278,52.3680203],"type":"Point"}},
{"type":"Feature","id":"osm:node:252111330","properties":{"name":"Café Scharrebier","amenity":"pub"},"geometry":{"coordinates":[4.9111074,52.3704414],"type":"Point"}},
{"type":"Feature","id":"osm:node:252121466","properties":{"name":"Febo","amenity":"fast_food"},"geometry":{"coordinates":[4.8669783,52.3759348],"type":"Point"}},
{"type":"Feature","id":"osm:node:252122452","properties":{"addr:city":"Amsterdam","addr:housenumber":"1","addr:postcode":"1014 DA","addr:street":"Polonceaukade","name":"De Bakkerswinkel","shop":"bakery","address":"Polonceaukade 1, Amsterdam"},"geometry":{"coordinates":[4.8746458,52.3858044],"type":"Point"}},
{"type":"Feature","id":"osm:node:252143918","properties":{"name":"de Kluis","amenity":"restaurant"},"geometry":{"coordinates":[4.9117046,52.371134],"type":"Point"}},
{"type":"Feature","id":"osm:node:253130481","properties":{"name":"Kriterion","amenity":"cinema"},"geometry":{"coordinates":[4.9106624,52.3624717],"type":"Point"}},
{"type":"Feature","id":"osm:node:253137532","properties":{"amenity":"post_office"},"geometry":{"coordinates":[4.8823289,52.3521265],"type":"Point"}},
{"type":"Feature","id":"osm:node:253139885","properties":{"addr:housenumber":"1","addr:street":"Joh.M. Coenenstraat","name":"Bvd Tweewielers Zuid","shop":"bicycle"},"geometry":{"coordinates":[4.8823055,52.3523571],"type":"Point"}},
{"type":"Feature","id":"osm:node:254039664","properties":{"addr:city":"Amsterdam","addr:housenumber":"16","addr:postcode":"1012JP","addr:street":"Oudebrugsteeg","name":"The Grasshopper","amenity":"restaurant","address":"Oudebrugsteeg 16, Amsterdam"},"geometry":{"coordinates":[4.8974337,52.3754583],"type":"Point"}},
{"type":"Feature","id":"osm:node:257441001","properties":{"name":"Lust","amenity":"pub"},"geometry":{"coordinates":[4.8890862,52.3507166],"type":"Point"}},
{"type":"Feature","id":"osm:node:257441219","properties":{"name":"IJzerhandel Zuid","shop":"hardware"},"geometry":{"coordinates":[4.8894017,52.3523799],"type":"Point"}},
{"type":"Feature","id":"osm:node:257441614","properties":{"name":"Nova & Kim","amenity":"restaurant"},"geometry":{"coordinates":[4.8889175,52.3526542],"type":"Point"}},
{"type":"Feature","id":"osm:node:257458848","properties":{"name":"Hermes","amenity":"pub"},"geometry":{"coordinates":[4.8892794,52.3526942],"type":"Point"}},
{"type":"Feature","id":"osm:node:257518629","properties":{"addr:city":"Amsterdam","addr:housenumber":"131","addr:postcode":"1072 LG","addr:street":"Ferdinand Bolstraat","name":"Sessions","shop":"hairdresser","address":"Ferdinand Bolstraat 131, Amsterdam"},"geometry":{"coordinates":[4.8915593,52.3520527],"type":"Point"}},
{"type":"Feature","id":"osm:node:257518669","properties":{"name":"Pearle","shop":"optician"},"geometry":{"coordinates":[4.8911179,52.3533829],"type":"Point"}},
{"type":"Feature","id":"osm:node:257518670","properties":{"addr:city":"Amsterdam","addr:housenumber":"113","addr:postcode":"1072 LE","addr:street":"Ferdinand Bolstraat","name":"Brazuca Coffee","amenity":"cafe","shop":"lighting","address":"Ferdinand Bolstraat 113, Amsterdam"},"geometry":{"coordinates":[4.8912806,52.3529767],"type":"Point"}},
{"type":"Feature","id":"osm:node:257518671","properties":{"name":"MC Meubelen","shop":"furniture"},"geometry":{"coordinates":[4.8943251,52.3533582],"type":"Point"}},
{"type":"Feature","id":"osm:node:257518672","properties":{"name":"Suncenter","shop":"tanning"},"geometry":{"coordinates":[4.8940161,52.3538039],"type":"Point"}},
{"type":"Feature","id":"osm:node:257518698","properties":{"shop":"kiosk"},"geometry":{"coordinates":[4.8939426,52.3539584],"type":"Point"}},
{"type":"Feature","id":"osm:node:257518845","properties":{"addr:city":"Amsterdam","addr:housenumber":"84-86","addr:postcode":"1072 LN","addr:street":"Ferdinand Bolstraat","name":"Etos","shop":"chemist","address":"Ferdinand Bolstraat 84-86, Amsterdam"},"geometry":{"coordinates":[4.8901421,52.3548082],"type":"Point"}},
{"type":"Feature","id":"osm:node:261633545","properties":{"name":"De Magere Brug","amenity":"pub"},"geometry":{"coordinates":[4.9032166,52.3636562],"type":"Point"}},
{"type":"Feature","id":"osm:node:263005477","properties":{"addr:city":"Amsterdam","addr:housenumber":"2","addr:postcode":"1101BD","addr:street":"De corridor","name":"Loungebar & Restaurant Vanzz","amenity":"restaurant","address":"De corridor 2, Amsterdam"},"geometry":{"coordinates":[4.9450524,52.3113257],"type":"Point"}},
{"type":"Feature","id":"osm:node:264588720","properties":{"addr:city":"Amsterdam","addr:street":"Plantage Middenlaan","name":"Cafe Eik en Linde","amenity":"pub"},"geometry":{"coordinates":[4.9109737,52.3665415],"type":"Point"}},
{"type":"Feature","id":"osm:node:267424900","properties":{"name":"SPAR","shop":"supermarket"},"geometry":{"coordinates":[4.9052746,52.3641936],"type":"Point"}},
{"type":"Feature","id":"osm:node:267425187","properties":{"name":"Water en Brood","amenity":"cafe"},"geometry":{"coordinates":[4.9058121,52.3641405],"type":"Point"}},
{"type":"Feature","id":"osm:node:267425357","properties":{"name":"Bankras","shop":"bicycle"},"geometry":{"coordinates":[4.8999699,52.3707722],"type":"Point"}},
{"type":"Feature","id":"osm:node:272811437","properties":{"addr:city":"Amsterdam","addr:housenumber":"1","addr:postcode":"1073 XE","addr:street":"Gerard Douplein","name":"Het Paardje","amenity":"pub","address":"Gerard Douplein 1, Amsterdam"},"geometry":{"coordinates":[4.8927389,52.3561778],"type":"Point"}},
{"type":"Feature","id":"osm:node:272818113","properties":{"name":"Bakker Bart","shop":"bakery"},"geometry":{"coordinates":[4.8908324,52.3541815],"type":"Point"}},
{"type":"Feature","id":"osm:node:274971292","properties":{"addr:city":"Amsterdam","addr:housenumber":"80","addr:street":"Sara Burgerhartstraat","name":"Lidl","shop":"supermarket","address":"Sara Burgerhartstraat 80, Amsterdam"},"geometry":{"coordinates":[4.8460083,52.3837271],"type":"Point"}},
{"type":"Feature","id":"osm:node:274972215","properties":{"addr:housenumber":"83","addr:postcode":"1011","addr:street":"Rapenburgerplein","name":"De Druif","amenity":"pub"},"geometry":{"coordinates":[4.9106387,52.3700817],"type":"Point"}},
{"type":"Feature","id":"osm:node:275457597","properties":{"addr:city":"Amsterdam","addr:housenumber":"454","addr:postcode":"1054JW","addr:street":"Overtoom","name":"ING","amenity":"atm","address":"Overtoom 454, Amsterdam"},"geometry":{"coordinates":[4.8621991,52.3596843],"type":"Point"}},
{"type":"Feature","id":"osm:node:275457798","properties":{"addr:city":"Amsterdam","addr:housenumber":"476-478","addr:postcode":"1054 JZ","addr:street":"Overtoom","name":"Avondwinkel","shop":"convenience","address":"Overtoom 476-478, Amsterdam"},"geometry":{"coordinates":[4.8608611,52.3593741],"type":"Point"}},
{"type":"Feature","id":"osm:node:275470945","properties":{"addr:city":"Amsterdam","addr:housenumber":"216","addr:postcode":"1075 EL","addr:street":"Koninginneweg","name":"Apotheek Dr de Haan","amenity":"pharmacy","address":"Koninginneweg 216, Amsterdam"},"geometry":{"coordinates":[4.8573889,52.3518804],"type":"Point"}},
{"type":"Feature","id":"osm:node:276769055","properties":{"addr:city":"Amsterdam","addr:housenumber":"1","addr:postcode":"1059 CS","addr:street":"Hoofddorpweg","name":"Schinkel Apotheek","amenity":"pharmacy","address":"Hoofddorpweg 1, Amsterdam"},"geometry":{"coordinates":[4.8516668,52.3508521],"type":"Point"}},
{"type":"Feature","id":"osm:node:276775079","properties":{"addr:city":"Amsterdam","addr:housenumber":"3","addr:postcode":"1071 CX","addr:street":"Paulus Potterstraat","name":"Museumshop","shop":"gift","address":"Paulus Potterstraat 3, Amsterdam"},"geometry":{"coordinates":[4.8836668,52.3592883],"type":"Point"}},
{"type":"Feature","id":"osm:node:276775733","properties":{"addr:city":"Amsterdam","addr:housenumber":"18","addr:postcode":"1071 ZB","addr:street":"Hobbemastraat","name":"Cobra Café","amenity":"pub","address":"Hobbemastraat 18, Amsterdam"},"geometry":{"coordinates":[4.8842999,52.3589397],"type":"Point"}},
{"type":"Feature","id":"osm:node:279185367","properties":{"addr:city":"Amsterdam","addr:housenumber":"16","addr:postcode":"1076 DN","addr:street":"Laan der Hesperiden","name":"Bibl. Olympisch Kwartier","amenity":"library","address":"Laan der Hesperiden 16, Amsterdam"},"geometry":{"coordinates":[4.85578,52.3453125],"type":"Point"}},
{"type":"Feature","id":"osm:node:279405755","properties":{"addr:city":"Amsterdam","addr:housenumber":"568","addr:street":"Prinsengracht","name":"Café Heuvel","amenity":"cafe","address":"Prinsengracht 568, Amsterdam"},"geometry":{"coordinates":[4.8879212,52.3624354],"type":"Point"}},
{"type":"Feature","id":"osm:node:280051278","properties":{"addr:city":"Amsterdam","addr:housenumber":"103","addr:postcode":"1059 AG","addr:street":"Aalsmeerweg","name":"Retort","amenity":"arts_centre","address":"Aalsmeerweg 103, Amsterdam"},"geometry":{"coordinates":[4.8478748,52.3477964],"type":"Point"}},
{"type":"Feature","id":"osm:node:280477621","properties":{"name":"Gruter","amenity":"pub"},"geometry":{"coordinates":[4.8749907,52.3570184],"type":"Point"}},
{"type":"Feature","id":"osm:node:280856526","properties":{"name":"de Levante","amenity":"arts_centre"},"geometry":{"coordinates":[4.8861493,52.3586056],"type":"Point"}},
{"type":"Feature","id":"osm:node:282318703","properties":{"addr:city":"Amsterdam","addr:housenumber":"1","addr:postcode":"1058 TV","addr:street":"Theophile de Bockstraat","name":"Gent","amenity":"pub","address":"Theophile de Bockstraat 1, Amsterdam"},"geometry":{"coordinates":[4.8530144,52.3546759],"type":"Point"}},
{"type":"Feature","id":"osm:node:283240513","properties":{"name":"Kamerz","amenity":"pub"},"geometry":{"coordinates":[4.8744439,52.3842987],"type":"Point"}},
{"type":"Feature","id":"osm:node:283241256","properties":{"addr:city":"Amsterdam","addr:housenumber":"6","addr:postcode":"1051PA","addr:street":"Watertorenplein","name":"Café-Restaurant Amsterdam","amenity":"restaurant","address":"Watertorenplein 6, Amsterdam"},"geometry":{"coordinates":[4.8682145,52.3842205],"type":"Point"}},
{"type":"Feature","id":"osm:node:283242072","properties":{"addr:city":"Amsterdam","addr:housenumber":"32","addr:postcode":"1051 CH","addr:street":"Van Slingelandtstraat","name":"Praxis Amsterdam Westerpark","shop":"doityourself","address":"Van Slingelandtstraat 32, Amsterdam"},"geometry":{"coordinates":[4.8660312,52.384266],"type":"Point"}},
{"type":"Feature","id":"osm:node:285165048","properties":{"addr:city":"Amsterdam","addr:housenumber":"1","addr:postcode":"1071 TR","addr:street":"Roelof Hartplein","name":"Wildschut","amenity":"pub","address":"Roelof Hartplein 1, Amsterdam"},"geometry":{"coordinates":[4.8824008,52.3534426],"type":"Point"}},
{"type":"Feature","id":"osm:node:286410338","properties":{"addr:city":"Amsterdam","addr:housenumber":"36","addr:postcode":"1077 WX","addr:street":"Prinses Irenestraat","name":"Thomaskerk","amenity":"place_of_worship","address":"Prinses Irenestraat 36, Amsterdam"},"geometry":{"coordinates":[4.8748262,52.342086],"type":"Point"}},
{"type":"Feature","id":"osm:node:287295054","properties":{"name":"Al Ponte","amenity":"cafe"},"geometry":{"coordinates":[4.9082272,52.381905],"type":"Point"}},
{"type":"Feature","id":"osm:node:287295070","properties":{"addr:city":"Amsterdam","addr:housenumber":"1","addr:postcode":"1021 PX","addr:street":"Noordwal","name":"Dok du Nord","amenity":"restaurant","address":"Noordwal 1, Amsterdam"},"geometry":{"coordinates":[4.9128268,52.3811001],"type":"Point"}},
{"type":"Feature","id":"osm:node:287302196","properties":{"addr:city":"Amsterdam","addr:housenumber":"76","addr:postcode":"1021JK","addr:street":"Meeuwenlaan","name":"Dirk van den Broek","shop":"supermarket","address":"Meeuwenlaan 76, Amsterdam"},"geometry":{"coordinates":[4.9181125,52.3847281],"type":"Point"}},
{"type":"Feature","id":"osm:node:287760322","properties":{"addr:city":"Amsterdam","addr:housenumber":"80","addr:postcode":"1058 NP","addr:street":"Heemstedestraat","name":"Cedars","amenity":"restaurant","address":"Heemstedestraat 80, Amsterdam"},"geometry":{"coordinates":[4.8444223,52.3519506],"type":"Point"}},
{"type":"Feature","id":"osm:node:291097138","properties":{"addr:city":"Amsterdam","addr:housenumber":"2","addr:postcode":"1071AA","addr:street":"Vondelpark","name":"Groot Melkhuis","amenity":"cafe","address":"Vondelpark 2, Amsterdam"},"geometry":{"coordinates":[4.8683025,52.3585322],"type":"Point"}},
{"type":"Feature","id":"osm:node:292367162","properties":{"name":"Begijnhofkapel (RK)","amenity":"place_of_worship"},"geometry":{"coordinates":[4.8896053,52.3692964],"type":"Point"}},
{"type":"Feature","id":"osm:node:292959213","properties":{},"geometry":{"coordinates":[4.8922306,52.3675568],"type":"Point"}},
{"type":"Feature","id":"osm:node:292959265","properties":{},"geometry":{"coordinates":[4.89138,52.3671831],"type":"Point"}},
{"type":"Feature","id":"osm:node:293877602","properties":{"name":"Kunstkerk","amenity":"arts_centre"},"geometry":{"coordinates":[4.8867391,52.3854142],"type":"Point"}},
{"type":"Feature","id":"osm:node:295378745","properties":{"name":"Moods","amenity":"pub"},"geometry":{"coordinates":[4.8806733,52.3794724],"type":"Point"}},
{"type":"Feature","id":"osm:node:295523873","properties":{"addr:city":"Amsterdam","addr:housenumber":"19","addr:postcode":"1077 WT","addr:street":"Prinses Irenestraat","name":"As","amenity":"restaurant","address":"Prinses Irenestraat 19, Amsterdam"},"geometry":{"coordinates":[4.8802689,52.3415463],"type":"Point"}},
{"type":"Feature","id":"osm:node:296044190","properties":{"addr:housenumber":"63A","addr:street":"Oosterdokskade","name":"MacBike Oosterdokskade","amenity":"bicycle_rental"},"geometry":{"coordinates":[4.9067875,52.3760478],"type":"Point"}},
{"type":"Feature","id":"osm:node:296044226","properties":{"addr:city":"Amsterdam","addr:housenumber":"143","addr:postcode":"1011 AC","addr:street":"De Ruijterkade","name":"Starbikes","amenity":"bicycle_rental","address":"De Ruijterkade 143, Amsterdam"},"geometry":{"coordinates":[4.9080895,52.3774607],"type":"Point"}},
{"type":"Feature","id":"osm:node:297604281","properties":{"name":"Croissanterie 'Commelin'","shop":"bakery"},"geometry":{"coordinates":[4.926314,52.363867],"type":"Point"}},
{"type":"Feature","id":"osm:node:298094242","properties":{"addr:city":"Amsterdam","addr:housenumber":"16","addr:postcode":"1012NP","addr:street":"Dam","name":"Rabobank","amenity":"bank","address":"Dam 16, Amsterdam"},"geometry":{"coordinates":[4.8919039,52.3726379],"type":"Point"}},
{"type":"Feature","id":"osm:node:299723005","properties":{"shop":"snacks"},"geometry":{"coordinates":[4.9158323,52.3668326],"type":"Point"}},
{"type":"Feature","id":"osm:node:299723495","properties":{"shop":"snacks"},"geometry":{"coordinates":[4.9138909,52.3664961],"type":"Point"}},
{"type":"Feature","id":"osm:node:299725990","properties":{"shop":"snacks"},"geometry":{"coordinates":[4.9203454,52.3653611],"type":"Point"}},
{"type":"Feature","id":"osm:node:299726177","properties":{"shop":"snacks"},"geometry":{"coordinates":[4.9182817,52.3649422],"type":"Point"}},
{"type":"Feature","id":"osm:node:299727761","properties":{"name":"Planetariumcafé","amenity":"cafe"},"geometry":{"coordinates":[4.9131881,52.3673089],"type":"Point"}},
{"type":"Feature","id":"osm:node:299916446","properties":{"shop":"snacks"},"geometry":{"coordinates":[4.9187776,52.3655851],"type":"Point"}},
{"type":"Feature","id":"osm:node:300146669","properties":{"name":"de Appel","amenity":"arts_centre"},"geometry":{"coordinates":[4.8897178,52.3648025],"type":"Point"}},
{"type":"Feature","id":"osm:node:302309462","properties":{"addr:city":"Amsterdam","addr:housenumber":"35","addr:postcode":"1076 DE","addr:street":"Olympisch Stadion","name":"Harbour Club Café","amenity":"restaurant","address":"Olympisch Stadion 35, Amsterdam"},"geometry":{"coordinates":[4.854536,52.3424865],"type":"Point"}},
{"type":"Feature","id":"osm:node:303415117","properties":{"amenity":"post_office"},"geometry":{"coordinates":[4.8411454,52.353663],"type":"Point"}},
{"type":"Feature","id":"osm:node:304075550","properties":{"name":"Sphinx","amenity":"fast_food"},"geometry":{"coordinates":[4.9231091,52.3685263],"type":"Point"}},
{"type":"Feature","id":"osm:node:304076330","properties":{"name":"Il Forno","amenity":"restaurant"},"geometry":{"coordinates":[4.9217468,52.3689488],"type":"Point"}},
{"type":"Feature","id":"osm:node:305076371","properties":{"name":"Waaghals","amenity":"restaurant"},"geometry":{"coordinates":[4.8890623,52.3571106],"type":"Point"}},
{"type":"Feature","id":"osm:node:306216079","properties":{"addr:housenumber":"98E","addr:postcode":"1093BZ","addr:street":"Dapperstraat","name":"De Jonge - van de Vusse","shop":"convenience"},"geometry":{"coordinates":[4.9283665,52.3609121],"type":"Point"}},
{"type":"Feature","id":"osm:node:312068096","properties":{"addr:city":"Amsterdam","addr:housenumber":"30","addr:postcode":"1015 DD","addr:street":"Prinsenstraat","name":"Vergulde Gaper","amenity":"pub","address":"Prinsenstraat 30, Amsterdam"},"geometry":{"coordinates":[4.8865875,52.3780018],"type":"Point"}},
{"type":"Feature","id":"osm:node:315061708","properties":{"addr:city":"Duivendrecht","addr:housenumber":"75","addr:postcode":"1115CX","addr:street":"Dorpsplein","name":"Jan en Jan","amenity":"fast_food","address":"Dorpsplein 75, Duivendrecht"},"geometry":{"coordinates":[4.9395639,52.3327384],"type":"Point"}},
{"type":"Feature","id":"osm:node:316248655","properties":{"addr:city":"Amsterdam","addr:housenumber":"1","addr:postcode":"1043AX","addr:street":"Luvernes","name":"Praxis Megastore Amsterdam Westpoort","shop":"doityourself","address":"Luvernes 1, Amsterdam"},"geometry":{"coordinates":[4.8047705,52.392027],"type":"Point"}},
{"type":"Feature","id":"osm:node:318453914","properties":{"name":"Bridges","amenity":"restaurant"},"geometry":{"coordinates":[4.895255,52.3709275],"type":"Point"}},
{"type":"Feature","id":"osm:node:319520776","properties":{"addr:city":"Amsterdam","addr:housenumber":"1110","addr:postcode":"1081 HZ","addr:street":"De Boelelaan","name":"Albert Heijn to go","shop":"convenience","address":"De Boelelaan 1110, Amsterdam"},"geometry":{"coordinates":[4.859908,52.3354568],"type":"Point"}},
{"type":"Feature","id":"osm:node:324817976","properties":{"addr:city":"Amsterdam","addr:housenumber":"430","addr:postcode":"1071 TT","addr:street":"Roelof Hartplein","name":"Bibliotheek Roelof Hartplein","amenity":"library","address":"Roelof Hartplein 430, Amsterdam"},"geometry":{"coordinates":[4.8825724,52.3525874],"type":"Point"}},
{"type":"Feature","id":"osm:node:327688062","properties":{"addr:city":"Amsterdam","addr:housenumber":"226","addr:postcode":"1075 XT","addr:street":"Amstelveenseweg","name":"café Bos","amenity":"pub","address":"Amstelveenseweg 226, Amsterdam"},"geometry":{"coordinates":[4.856578,52.3509324],"type":"Point"}},
{"type":"Feature","id":"osm:node:330661358","properties":{"addr:city":"Amsterdam","addr:housenumber":"32","addr:postcode":"1077 VW","addr:street":"Richard Wagnerstraat","name":"Christian Science","amenity":"place_of_worship","address":"Richard Wagnerstraat 32, Amsterdam"},"geometry":{"coordinates":[4.8790271,52.3462481],"type":"Point"}},
{"type":"Feature","id":"osm:node:330662573","properties":{"addr:city":"Amsterdam","addr:housenumber":"38","addr:postcode":"1077 EE","addr:street":"Gerrit van der Veenstraat","name":"Lutherkapel","amenity":"place_of_worship","address":"Gerrit van der Veenstraat 38, Amsterdam"},"geometry":{"coordinates":[4.8795321,52.3489628],"type":"Point"}},
{"type":"Feature","id":"osm:node:332059860","properties":{"addr:city":"Amsterdam","addr:housenumber":"7","addr:postcode":"1018 AL","addr:street":"Funenkade","name":"Brouwerij 't IJ","amenity":"pub","address":"Funenkade 7, Amsterdam"},"geometry":{"coordinates":[4.9263454,52.3666601],"type":"Point"}},
{"type":"Feature","id":"osm:node:332147069","properties":{"name":"RAI Amsterdam","amenity":"conference_centre"},"geometry":{"coordinates":[4.8891098,52.3417982],"type":"Point"}},
{"type":"Feature","id":"osm:node:332572862","properties":{"name":"Dirk van den Broek","shop":"supermarket"},"geometry":{"coordinates":[4.8922495,52.3571729],"type":"Point"}},
{"type":"Feature","id":"osm:node:332598830","properties":{"addr:city":"Amsterdam","addr:housenumber":"172","addr:postcode":"1072 LT","addr:street":"Ferdinand Bolstraat","name":"Ferdinand Deegspecialiteiten","amenity":"fast_food","address":"Ferdinand Bolstraat 172, Amsterdam"},"geometry":{"coordinates":[4.8911783,52.3516358],"type":"Point"}},
{"type":"Feature","id":"osm:node:332598833","properties":{"addr:city":"Amsterdam","addr:housenumber":"119","addr:postcode":"1072LG","addr:street":"Ferdinand Bolstraat","name":"Kwekkeboom","shop":"pastry","address":"Ferdinand Bolstraat 119, Amsterdam"},"geometry":{"coordinates":[4.891442,52.3524527],"type":"Point"}},
{"type":"Feature","id":"osm:node:332642297","properties":{"addr:city":"Amsterdam","addr:housenumber":"103","addr:postcode":"1072 EX","addr:street":"Ceintuurbaan","name":"Desa","amenity":"restaurant","address":"Ceintuurbaan 103, Amsterdam"},"geometry":{"coordinates":[4.8918487,52.3530404],"type":"Point"}},
{"type":"Feature","id":"osm:node:332642298","properties":{"addr:city":"Amsterdam","addr:housenumber":"109A","addr:postcode":"1072 EZ","addr:street":"Ceintuurbaan","name":"Blokker","shop":"houseware","address":"Ceintuurbaan 109A, Amsterdam"},"geometry":{"coordinates":[4.891917,52.3530508],"type":"Point"}},
{"type":"Feature","id":"osm:node:332642301","properties":{"addr:city":"Amsterdam","addr:housenumber":"121","addr:postcode":"1072 GA","addr:street":"Ceintuurbaan","name":"Pizza Taxi Da Paolo & Seba","amenity":"restaurant","address":"Ceintuurbaan 121, Amsterdam"},"geometry":{"coordinates":[4.8925821,52.3531385],"type":"Point"}},
{"type":"Feature","id":"osm:node:332644228","properties":{"addr:city":"Amsterdam","addr:housenumber":"131","addr:postcode":"1072 GA","addr:street":"Ceintuurbaan","name":"Gebr. Winter","shop":"office_supplies","address":"Ceintuurbaan 131, Amsterdam"},"geometry":{"coordinates":[4.8925946,52.3531207],"type":"Point"}},
{"type":"Feature","id":"osm:node:332644230","properties":{"name":"Hardware.nl","shop":"computer"},"geometry":{"coordinates":[4.8928054,52.3531454],"type":"Point"}},
{"type":"Feature","id":"osm:node:332644231","properties":{"name":"Citywash","shop":"laundry"},"geometry":{"coordinates":[4.8929857,52.3531733],"type":"Point"}},
{"type":"Feature","id":"osm:node:332644232","properties":{"name":"Game Mania","shop":"games"},"geometry":{"coordinates":[4.8931394,52.3531924],"type":"Point"}},
{"type":"Feature","id":"osm:node:332644234","properties":{"name":"Venus Nails","shop":"nail"},"geometry":{"coordinates":[4.8934133,52.353232],"type":"Point"}},
{"type":"Feature","id":"osm:node:332644235","properties":{"name":"Ink Station","shop":"printer_ink"},"geometry":{"coordinates":[4.8939473,52.3533064],"type":"Point"}},
{"type":"Feature","id":"osm:node:332661073","properties":{"addr:city":"Amsterdam","addr:housenumber":"18","addr:postcode":"1072 PA","addr:street":"Sarphatipark","name":"Toko Talaad Thai","amenity":"restaurant","shop":"toko","address":"Sarphatipark 18, Amsterdam"},"geometry":{"coordinates":[4.8938587,52.3540322],"type":"Point"}},
{"type":"Feature","id":"osm:node:332661074","properties":{"addr:housenumber":"4-H","addr:postcode":"1072PA","addr:street":"Sarphatipark","name":"Boca's Park","amenity":"restaurant"},"geometry":{"coordinates":[4.8936555,52.3543439],"type":"Point"}},
{"type":"Feature","id":"osm:node:332661076","properties":{"addr:city":"Amsterdam","addr:housenumber":"89-B","addr:postcode":"1072 LD","addr:street":"Ferdinand Bolstraat","name":"Febo","amenity":"fast_food","address":"Ferdinand Bolstraat 89-B, Amsterdam"},"geometry":{"coordinates":[4.8909587,52.3538862],"type":"Point"}},
{"type":"Feature","id":"osm:node:332661078","properties":{"addr:housenumber":"89B","addr:postcode":"1072LD","addr:street":"Ferdinand Bolstraat","name":"Jumbo","shop":"supermarket"},"geometry":{"coordinates":[4.8909915,52.3538192],"type":"Point"}},
{"type":"Feature","id":"osm:node:332661081","properties":{"addr:city":"Amsterdam","addr:housenumber":"103","addr:postcode":"1072 LE","addr:street":"Ferdinand Bolstraat","name":"Ferdinand Bol Apotheek","amenity":"pharmacy","address":"Ferdinand Bolstraat 103, Amsterdam"},"geometry":{"coordinates":[4.8912069,52.3532011],"type":"Point"}},
{"type":"Feature","id":"osm:node:332661083","properties":{"name":"Sacha","shop":"shoes"},"geometry":{"coordinates":[4.8912132,52.3531567],"type":"Point"}},
{"type":"Feature","id":"osm:node:332661086","properties":{"addr:city":"Amsterdam","addr:housenumber":"109","addr:postcode":"1072 LE","addr:street":"Ferdinand Bolstraat","name":"Streetlife","shop":"clothes","address":"Ferdinand Bolstraat 109, Amsterdam"},"geometry":{"coordinates":[4.8912207,52.3530716],"type":"Point"}},
{"type":"Feature","id":"osm:node:332661088","properties":{"addr:city":"Amsterdam","addr:housenumber":"111","addr:postcode":"1072 LE","addr:street":"Ferdinand Bolstraat","name":"Telefoonstad","shop":"mobile_phone","address":"Ferdinand Bolstraat 111, Amsterdam"},"geometry":{"coordinates":[4.8912665,52.353019],"type":"Point"}},
{"type":"Feature","id":"osm:node:332689452","properties":{"addr:city":"Amsterdam","addr:housenumber":"93","addr:postcode":"1072 EX","addr:street":"Ceintuurbaan","name":"Subway","amenity":"fast_food","address":"Ceintuurbaan 93, Amsterdam"},"geometry":{"coordinates":[4.8914518,52.3529905],"type":"Point"}},
{"type":"Feature","id":"osm:node:332689454","properties":{"addr:city":"Amsterdam","addr:housenumber":"77-79","addr:postcode":"1072 EW","addr:street":"Ceintuurbaan","name":"Wibra","shop":"clothes","address":"Ceintuurbaan 77-79, Amsterdam"},"geometry":{"coordinates":[4.8904434,52.3528449],"type":"Point"}},
{"type":"Feature","id":"osm:node:332689455","properties":{"name":"Zabayon","amenity":"restaurant"},"geometry":{"coordinates":[4.8902932,52.3528236],"type":"Point"}},
{"type":"Feature","id":"osm:node:332689456","properties":{"name":"Baby Anco","shop":"baby"},"geometry":{"coordinates":[4.8901916,52.352806],"type":"Point"}},
{"type":"Feature","id":"osm:node:332689457","properties":{"name":"Samba Kitchen","amenity":"restaurant"},"geometry":{"coordinates":[4.8899633,52.3527876],"type":"Point"}},
{"type":"Feature","id":"osm:node:332689458","properties":{"name":"Dierenparadijs","shop":"pet"},"geometry":{"coordinates":[4.8897359,52.3527493],"type":"Point"}},
{"type":"Feature","id":"osm:node:332689459","properties":{"name":"Skatezone","shop":"sports"},"geometry":{"coordinates":[4.889624,52.352737],"type":"Point"}},
{"type":"Feature","id":"osm:node:332689460","properties":{"name":"Kapsalon Saadet","shop":"hairdresser"},"geometry":{"coordinates":[4.8885313,52.3525935],"type":"Point"}},
{"type":"Feature","id":"osm:node:332692567","properties":{"name":"Vitamin Shop","shop":"nutrition_supplements"},"geometry":{"coordinates":[4.8884186,52.3525788],"type":"Point"}},
{"type":"Feature","id":"osm:node:332692569","properties":{"name":"Antiquariaat Colombine","shop":"books"},"geometry":{"coordinates":[4.8883488,52.3525739],"type":"Point"}},
{"type":"Feature","id":"osm:node:332692571","properties":{"name":"GSM4U","shop":"mobile_phone"},"geometry":{"coordinates":[4.8883267,52.3525603],"type":"Point"}},
{"type":"Feature","id":"osm:node:332692575","properties":{"name":"SmileTours.nl","shop":"travel_agency"},"geometry":{"coordinates":[4.8880277,52.3525168],"type":"Point"}},
{"type":"Feature","id":"osm:node:332692577","properties":{"name":"PC Rider","shop":"computer"},"geometry":{"coordinates":[4.8878471,52.3524937],"type":"Point"}},
{"type":"Feature","id":"osm:node:332692578","properties":{"name":"De Voordeelwinkel","shop":"electronics"},"geometry":{"coordinates":[4.887635,52.3524647],"type":"Point"}},
{"type":"Feature","id":"osm:node:332692580","properties":{"name":"Hecke Electronica","shop":"radiotechnics"},"geometry":{"coordinates":[4.8872504,52.3524286],"type":"Point"}},
{"type":"Feature","id":"osm:node:332994740","properties":{"name":"Coos de Joode","shop":"hairdresser"},"geometry":{"coordinates":[4.8871761,52.3520939],"type":"Point"}},
{"type":"Feature","id":"osm:node:332994743","properties":{"name":"Harman Tapijt & Vinyl","shop":"furniture"},"geometry":{"coordinates":[4.887359,52.3521301],"type":"Point"}},
{"type":"Feature","id":"osm:node:332994746","properties":{"name":"El Rocio Tapas Bar","amenity":"restaurant"},"geometry":{"coordinates":[4.8875543,52.3521524],"type":"Point"}},
{"type":"Feature","id":"osm:node:332994749","properties":{"addr:city":"Amsterdam","addr:housenumber":"200","addr:postcode":"1072 GC","addr:street":"Ceintuurbaan","name":"Quick lijsten","shop":"craft","address":"Ceintuurbaan 200, Amsterdam"},"geometry":{"coordinates":[4.8874879,52.3521482],"type":"Point"}},
{"type":"Feature","id":"osm:node:332994752","properties":{"name":"La Roca","amenity":"pub"},"geometry":{"coordinates":[4.8878802,52.3521945],"type":"Point"}},
{"type":"Feature","id":"osm:node:332994756","properties":{"name":"Thai Deum","amenity":"restaurant"},"geometry":{"coordinates":[4.8880745,52.3522209],"type":"Point"}},
{"type":"Feature","id":"osm:node:332994758","properties":{"name":"B. van Erve Haardensmid","shop":"fireplace"},"geometry":{"coordinates":[4.888193,52.3522361],"type":"Point"}},
{"type":"Feature","id":"osm:node:332994761","properties":{"name":"Pahop Thai","amenity":"restaurant"},"geometry":{"coordinates":[4.8889814,52.3523455],"type":"Point"}},
{"type":"Feature","id":"osm:node:332994763","properties":{"name":"De Waal","shop":"bakery"},"geometry":{"coordinates":[4.88888,52.3523319],"type":"Point"}},
{"type":"Feature","id":"osm:node:332994766","properties":{"name":"Keurslager J. v. Zadelhoff","shop":"butcher"},"geometry":{"coordinates":[4.8887203,52.3523098],"type":"Point"}},
{"type":"Feature","id":"osm:node:332994768","properties":{"name":"Fietshuis 228","shop":"bicycle"},"geometry":{"coordinates":[4.8886309,52.3522926],"type":"Point"}},
{"type":"Feature","id":"osm:node:332994770","properties":{"name":"'t Ceintuurtje","amenity":"pub"},"geometry":{"coordinates":[4.888533,52.3522794],"type":"Point"}},
{"type":"Feature","id":"osm:node:332994773","properties":{"shop":"kiosk"},"geometry":{"coordinates":[4.8884446,52.3522666],"type":"Point"}},
{"type":"Feature","id":"osm:node:332994775","properties":{"name":"Quick Lijsten","shop":"frame"},"geometry":{"coordinates":[4.8882842,52.3522452],"type":"Point"}},
{"type":"Feature","id":"osm:node:334960711","properties":{"addr:city":"Amsterdam","addr:housenumber":"212","addr:postcode":"1075 EL","addr:street":"Koninginneweg","name":"Tapas bar Castro","amenity":"pub","address":"Koninginneweg 212, Amsterdam"},"geometry":{"coordinates":[4.8577378,52.3519743],"type":"Point"}},
{"type":"Feature","id":"osm:node:341201770","properties":{"addr:city":"Amsterdam","addr:housenumber":"2","addr:street":"Hugo de Vrieslaan","name":"De Bron","amenity":"place_of_worship","address":"Hugo de Vrieslaan 2, Amsterdam"},"geometry":{"coordinates":[4.9344606,52.3507401],"type":"Point"}},
{"type":"Feature","id":"osm:node:342469369","properties":{"addr:city":"Amsterdam","addr:housenumber":"101","addr:postcode":"1054 NJ","addr:street":"Anna Spenglerstraat","name":"Gezondheidscentrum Helmersstraat","amenity":"doctors","address":"Anna Spenglerstraat 101, Amsterdam"},"geometry":{"coordinates":[4.8701039,52.3624732],"type":"Point"}},
{"type":"Feature","id":"osm:node:343366912","properties":{"addr:city":"Amsterdam","addr:housenumber":"28","addr:postcode":"1054 SP","addr:street":"Marius van Bouwdijk Bastiaansestraat","name":"WG Kunst","amenity":"arts_centre","address":"Marius van Bouwdijk Bastiaansestraat 28, Amsterdam"},"geometry":{"coordinates":[4.8704463,52.3633344],"type":"Point"}},
{"type":"Feature","id":"osm:node:349012999","properties":{"name":"Onder de Ooievaar","amenity":"pub"},"geometry":{"coordinates":[4.8991929,52.3619174],"type":"Point"}},
{"type":"Feature","id":"osm:node:350047710","properties":{"addr:housenumber":"8","addr:postcode":"1066 EZ","addr:street":"Akersluis","name":"Syriana","amenity":"restaurant"},"geometry":{"coordinates":[4.7927657,52.3420835],"type":"Point"}},
{"type":"Feature","id":"osm:node:351416502","properties":{"name":"de Pels","amenity":"pub"},"geometry":{"coordinates":[4.8853647,52.3687836],"type":"Point"}},
{"type":"Feature","id":"osm:node:353029953","properties":{"addr:city":"Amsterdam","addr:housenumber":"148","addr:postcode":"1074 GG","addr:street":"Diamantstraat","name":"buurtveiligheidspunt","amenity":"public_building","address":"Diamantstraat 148, Amsterdam"},"geometry":{"coordinates":[4.9063856,52.3505254],"type":"Point"}},
{"type":"Feature","id":"osm:node:355177738","properties":{"name":"Café Americain","amenity":"cafe"},"geometry":{"coordinates":[4.8813718,52.3638967],"type":"Point"}},
{"type":"Feature","id":"osm:node:355241048","properties":{"addr:city":"Amsterdam","addr:housenumber":"96","addr:postcode":"1017 PE","addr:street":"Leidsestraat","name":"Wok to Walk","amenity":"fast_food","address":"Leidsestraat 96, Amsterdam"},"geometry":{"coordinates":[4.8836169,52.3647338],"type":"Point"}},
{"type":"Feature","id":"osm:node:355241869","properties":{"addr:housenumber":"8","addr:postcode":"1012pt","addr:street":"Kolksteeg","name":"Wok to Walk","amenity":"fast_food"},"geometry":{"coordinates":[4.8953344,52.3762173],"type":"Point"}},
{"type":"Feature","id":"osm:node:355242215","properties":{"addr:city":"Amsterdam","addr:housenumber":"85","addr:postcode":"1012HZ","addr:street":"Warmoesstraat","name":"Wok to Walk","amenity":"fast_food","address":"Warmoesstraat 85, Amsterdam"},"geometry":{"coordinates":[4.8973751,52.3747503],"type":"Point"}},
{"type":"Feature","id":"osm:node:355242642","properties":{"addr:city":"Amsterdam","addr:housenumber":"45","addr:postcode":"1017CM","addr:street":"Reguliersbreestraat","name":"Wok to walk","amenity":"fast_food","address":"Reguliersbreestraat 45, Amsterdam"},"geometry":{"coordinates":[4.8954966,52.3664693],"type":"Point"}},
{"type":"Feature","id":"osm:node:358383390","properties":{"addr:city":"Amsterdam","addr:housenumber":"87-b","addr:postcode":"1065 KK","addr:street":"Pieter Calandlaan","name":"Bibliotheek","amenity":"library","address":"Pieter Calandlaan 87-b, Amsterdam"},"geometry":{"coordinates":[4.8256208,52.3559939],"type":"Point"}},
{"type":"Feature","id":"osm:node:359239780","properties":{"addr:housenumber":"4","addr:postcode":"1012","addr:street":"Raamsteeg","name":"Cafe Gollem","amenity":"pub"},"geometry":{"coordinates":[4.8887186,52.3702533],"type":"Point"}},
{"type":"Feature","id":"osm:node:359249111","properties":{"addr:housenumber":"3","addr:postcode":"1012 PT","addr:street":"Kolksteeg","name":"In de Wildeman","amenity":"pub"},"geometry":{"coordinates":[4.8951567,52.3761636],"type":"Point"}},
{"type":"Feature","id":"osm:node:360162976","properties":{"addr:city":"Amsterdam","addr:housenumber":"1345","addr:postcode":"1066 CM","addr:street":"Sloterweg","name":"De Halve Maen","amenity":"restaurant","address":"Sloterweg 1345, Amsterdam"},"geometry":{"coordinates":[4.7932592,52.3411396],"type":"Point"}},
{"type":"Feature","id":"osm:node:363719080","properties":{"addr:city":"Amsterdam","addr:housenumber":"1","addr:postcode":"1012 ED","addr:street":"Oude Doelenstraat","name":"Golden Chopsticks","amenity":"restaurant","address":"Oude Doelenstraat 1, Amsterdam"},"geometry":{"coordinates":[4.8963879,52.3717749],"type":"Point"}},
{"type":"Feature","id":"osm:node:363772566","properties":{"addr:city":"Amsterdam","addr:housenumber":"275","addr:postcode":"1017XJ","addr:street":"Weteringschans","name":"Rabobank","amenity":"atm","address":"Weteringschans 275, Amsterdam"},"geometry":{"coordinates":[4.8980974,52.3596225],"type":"Point"}},
{"type":"Feature","id":"osm:node:364040518","properties":{"addr:city":"Amsterdam","addr:postcode":"1012NM","addr:street":"Gravenstraat","name":"Eethuis Sie-Joe","amenity":"restaurant"},"geometry":{"coordinates":[4.8919511,52.3742998],"type":"Point"}},
{"type":"Feature","id":"osm:node:366362386","properties":{"name":"Cantarell","amenity":"fast_food"},"geometry":{"coordinates":[4.9081599,52.3619917],"type":"Point"}},
{"type":"Feature","id":"osm:node:366362478","properties":{"name":"Cafe Noir","amenity":"cafe"},"geometry":{"coordinates":[4.9082663,52.3618135],"type":"Point"}},
{"type":"Feature","id":"osm:node:371534294","properties":{"addr:city":"Amsterdam","addr:housenumber":"276","addr:postcode":"1072 GJ","addr:street":"Ceintuurbaan","name":"Nightstop Supermarket","shop":"convenience","address":"Ceintuurbaan 276, Amsterdam"},"geometry":{"coordinates":[4.8906817,52.3525419],"type":"Point"}},
{"type":"Feature","id":"osm:node:371534970","properties":{"addr:city":"Amsterdam","addr:housenumber":"274","addr:postcode":"1072 GJ","addr:street":"Ceintuurbaan","name":"'t Podium","amenity":"pub","address":"Ceintuurbaan 274, Amsterdam"},"geometry":{"coordinates":[4.8908534,52.3525648],"type":"Point"}},
{"type":"Feature","id":"osm:node:375859388","properties":{"addr:city":"Amsterdam","addr:housenumber":"33","addr:postcode":"1059 VW","addr:street":"Rietwijkerstraat","name":"Rosa Rosas","shop":"clothes","address":"Rietwijkerstraat 33, Amsterdam"},"geometry":{"coordinates":[4.8491705,52.3491516],"type":"Point"}},
{"type":"Feature","id":"osm:node:380792649","properties":{"addr:city":"Amsterdam","addr:housenumber":"10 H","addr:postcode":"1021 KB","addr:street":"Aambeeldstraat","name":"Hotel De Goudfazant","amenity":"restaurant","address":"Aambeeldstraat 10 H, Amsterdam"},"geometry":{"coordinates":[4.9301104,52.3837626],"type":"Point"}},
{"type":"Feature","id":"osm:node:383721457","properties":{"addr:city":"Amsterdam","addr:housenumber":"59","addr:postcode":"1071 EW","addr:street":"Van Eeghenstraat","name":"SBK / Galerie59","amenity":"arts_centre","address":"Van Eeghenstraat 59, Amsterdam"},"geometry":{"coordinates":[4.8740344,52.3574281],"type":"Point"}},
{"type":"Feature","id":"osm:node:391800517","properties":{"addr:city":"Amsterdam","addr:housenumber":"297","addr:postcode":"1025 LM","addr:street":"Nieuwendammerdijk","name":"'t Sluisje","amenity":"pub","address":"Nieuwendammerdijk 297, Amsterdam"},"geometry":{"coordinates":[4.9382277,52.3912178],"type":"Point"}},
{"type":"Feature","id":"osm:node:393089979","properties":{"name":"Dirk van den Broek","shop":"supermarket"},"geometry":{"coordinates":[4.9269604,52.3561378],"type":"Point"}},
{"type":"Feature","id":"osm:node:393090497","properties":{"addr:housenumber":"34","addr:postcode":"1092GH","addr:street":"Pretoriusstraat","name":"Helal et Gida","shop":"supermarket"},"geometry":{"coordinates":[4.9251236,52.3558757],"type":"Point"}},
{"type":"Feature","id":"osm:node:393091529","properties":{"addr:housenumber":"10","addr:postcode":"1092GE","addr:street":"Pretoriusstraat","name":"Lubbe","shop":"butcher"},"geometry":{"coordinates":[4.9266428,52.3562822],"type":"Point"}},
{"type":"Feature","id":"osm:node:393092635","properties":{"addr:housenumber":"41","addr:postcode":"1092EZ","addr:street":"Pretoriusstraat","name":"Kissami","shop":"hairdresser"},"geometry":{"coordinates":[4.9251579,52.3556555],"type":"Point"}},
{"type":"Feature","id":"osm:node:393093591","properties":{"addr:housenumber":"82","addr:postcode":"1092CN","addr:street":"Linnaeusstraat","name":"Kwekkeboom","amenity":"cafe"},"geometry":{"coordinates":[4.9270523,52.3565437],"type":"Point"}},
{"type":"Feature","id":"osm:node:393136467","properties":{"addr:housenumber":"102","addr:postcode":"1092CP","addr:street":"Linnaeusstraat","name":"Cafe Sport","amenity":"pub"},"geometry":{"coordinates":[4.9276727,52.355831],"type":"Point"}},
{"type":"Feature","id":"osm:node:393136932","properties":{"addr:housenumber":"5","addr:postcode":"1092HA","addr:street":"Transvaalstraat","name":"Natraj","amenity":"restaurant"},"geometry":{"coordinates":[4.9274741,52.3555711],"type":"Point"}},
{"type":"Feature","id":"osm:node:393137999","properties":{"name":"Amara May","amenity":"restaurant"},"geometry":{"coordinates":[4.9257723,52.3552228],"type":"Point"}},
{"type":"Feature","id":"osm:node:393140533","properties":{"name":"Kediri","amenity":"restaurant"},"geometry":{"coordinates":[4.9289667,52.355173],"type":"Point"}},
{"type":"Feature","id":"osm:node:393141569","properties":{"name":"Fiets & Meer","shop":"bicycle"},"geometry":{"coordinates":[4.9289051,52.354985],"type":"Point"}},
{"type":"Feature","id":"osm:node:393142806","properties":{"name":"Pizzeria Pescara","amenity":"restaurant"},"geometry":{"coordinates":[4.9291383,52.3548347],"type":"Point"}},
{"type":"Feature","id":"osm:node:393142916","properties":{"name":"Coffee Company","amenity":"cafe"},"geometry":{"coordinates":[4.9293665,52.3543353],"type":"Point"}},
{"type":"Feature","id":"osm:node:393143140","properties":{"addr:city":"Amsterdam","addr:housenumber":"10-12","addr:postcode":"1097 BM","addr:street":"Middenweg","name":"ABN AMRO","amenity":"bank","address":"Middenweg 10-12, Amsterdam"},"geometry":{"coordinates":[4.9285135,52.3549021],"type":"Point"}},
{"type":"Feature","id":"osm:node:393144872","properties":{"name":"Cappadocia","shop":"supermarket"},"geometry":{"coordinates":[4.9279764,52.3560658],"type":"Point"}},
{"type":"Feature","id":"osm:node:393145263","properties":{"name":"Toko Sumatra Deli","amenity":"fast_food"},"geometry":{"coordinates":[4.9279696,52.3561985],"type":"Point"}},
{"type":"Feature","id":"osm:node:393146030","properties":{"name":"Linnaeus apotheek","amenity":"pharmacy"},"geometry":{"coordinates":[4.9256632,52.359825],"type":"Point"}},
{"type":"Feature","id":"osm:node:393146256","properties":{"name":"Kuijper","amenity":"pub"},"geometry":{"coordinates":[4.9256271,52.3598914],"type":"Point"}},
{"type":"Feature","id":"osm:node:393146305","properties":{"name":"Milo","amenity":"pub"},"geometry":{"coordinates":[4.9254608,52.3602015],"type":"Point"}},
{"type":"Feature","id":"osm:node:393225833","properties":{"addr:housenumber":"1","addr:postcode":"1092BA","addr:street":"Beukenplein","name":"Turks Fruit","amenity":"fast_food"},"geometry":{"coordinates":[4.9179712,52.3575763],"type":"Point"}},
{"type":"Feature","id":"osm:node:393226657","properties":{"addr:housenumber":"92","addr:street":"Pretoriusstraat","name":"Gibraltar","shop":"seafood"},"geometry":{"coordinates":[4.92074,52.3545756],"type":"Point"}},
{"type":"Feature","id":"osm:node:393227053","properties":{"addr:housenumber":"90","addr:street":"Pretoriusstraat","name":"Jimmy","shop":"hairdresser"},"geometry":{"coordinates":[4.9208338,52.3546057],"type":"Point"}},
{"type":"Feature","id":"osm:node:393227402","properties":{"addr:housenumber":"84","addr:street":"Pretoriusstraat","shop":"doityourself"},"geometry":{"coordinates":[4.9211032,52.3546836],"type":"Point"}},
{"type":"Feature","id":"osm:node:393235136","properties":{"addr:city":"Amsterdam","addr:housenumber":"20","addr:postcode":"1092CG","addr:street":"Kastanjeweg","name":"Fietsenmakerij Jeroen","shop":"bicycle","address":"Kastanjeweg 20, Amsterdam"},"geometry":{"coordinates":[4.9238385,52.358081],"type":"Point"}},
{"type":"Feature","id":"osm:node:401830256","properties":{"name":"Rosarium","amenity":"restaurant"},"geometry":{"coordinates":[4.8915964,52.3318651],"type":"Point"}},
{"type":"Feature","id":"osm:node:404240994","properties":{"addr:city":"Badhoevedorp","addr:housenumber":"34","addr:postcode":"1171 DZ","addr:street":"Arendstraat","name":"Bibliotheek Badhoevedorp","amenity":"library","address":"Arendstraat 34, Badhoevedorp"},"geometry":{"coordinates":[4.7798208,52.3372851],"type":"Point"}},
{"type":"Feature","id":"osm:node:404243721","properties":{"addr:city":"Badhoevedorp","addr:housenumber":"1","addr:postcode":"1171 EA","addr:street":"Pa Verkuijllaan","name":"Mediq Apotheek Badhoevedorp","amenity":"pharmacy","address":"Pa Verkuijllaan 1, Badhoevedorp"},"geometry":{"coordinates":[4.7813839,52.3370141],"type":"Point"}},
{"type":"Feature","id":"osm:node:408396551","properties":{"addr:city":"Amsterdam","addr:housenumber":"113","addr:postcode":"1018 VN","addr:street":"Weesperstraat","name":"CCC - Concern Congres Centrum","amenity":"community_centre","address":"Weesperstraat 113, Amsterdam"},"geometry":{"coordinates":[4.9072382,52.3630173],"type":"Point"}},
{"type":"Feature","id":"osm:node:409555681","properties":{"addr:city":"Amsterdam","addr:housenumber":"62","addr:postcode":"1078 NL","addr:street":"Rooseveltlaan","name":"Jimmink","shop":"books","address":"Rooseveltlaan 62, Amsterdam"},"geometry":{"coordinates":[4.9007669,52.3448477],"type":"Point"}},
{"type":"Feature","id":"osm:node:410105025","properties":{"addr:city":"Amsterdam","addr:housenumber":"8-8A","addr:postcode":"1054HH","addr:street":"Overtoom","amenity":"atm","address":"Overtoom 8-8A, Amsterdam"},"geometry":{"coordinates":[4.8786779,52.3634011],"type":"Point"}},
{"type":"Feature","id":"osm:node:410190079","properties":{"addr:city":"Amsterdam","addr:housenumber":"78","addr:street":"Postjesweg","name":"Postjesweg","amenity":"post_office","address":"Postjesweg 78, Amsterdam"},"geometry":{"coordinates":[4.855004,52.3644798],"type":"Point"}},
{"type":"Feature","id":"osm:node:410190182","properties":{"addr:city":"Amsterdam","addr:housenumber":"130","addr:postcode":"1053EE","addr:street":"Kinkerstraat","amenity":"atm","address":"Kinkerstraat 130, Amsterdam"},"geometry":{"coordinates":[4.8699007,52.3667025],"type":"Point"}},
{"type":"Feature","id":"osm:node:410190190","properties":{"addr:city":"Amsterdam","addr:housenumber":"315","addr:postcode":"1053EV","addr:street":"Kinkerstraat","amenity":"atm","address":"Kinkerstraat 315, Amsterdam"},"geometry":{"coordinates":[4.8626473,52.3646097],"type":"Point"}},
{"type":"Feature","id":"osm:node:410212543","properties":{"addr:city":"Amsterdam","addr:housenumber":"40b","addr:postcode":"1016 VS","addr:street":"Looiersgracht","name":"Festina Lente","amenity":"pub","address":"Looiersgracht 40b, Amsterdam"},"geometry":{"coordinates":[4.8813577,52.3686458],"type":"Point"}},
{"type":"Feature","id":"osm:node:410288717","properties":{"addr:city":"Amsterdam","addr:housenumber":"36","addr:postcode":"1097 BP","addr:street":"Middenweg","name":"Klein Berlijn","shop":"clothes","address":"Middenweg 36, Amsterdam"},"geometry":{"coordinates":[4.9295322,52.3542426],"type":"Point"}},
{"type":"Feature","id":"osm:node:410291534","properties":{"addr:housenumber":"36","addr:postcode":"1092GH","addr:street":"Pretoriusstraat","name":"Safak","shop":"bakery"},"geometry":{"coordinates":[4.9249679,52.3558464],"type":"Point"}},
{"type":"Feature","id":"osm:node:410291535","properties":{"addr:housenumber":"76","addr:postcode":"1092CN","addr:street":"Linnaeusstraat","name":"Croissanterie Linnaeus","shop":"bakery"},"geometry":{"coordinates":[4.927147,52.3566939],"type":"Point"}},
{"type":"Feature","id":"osm:node:410294779","properties":{"addr:city":"Amsterdam","addr:housenumber":"190","addr:postcode":"1098 TW","addr:street":"Molukkenstraat","name":"Praxis Amsterdam Oost","shop":"doityourself","address":"Molukkenstraat 190, Amsterdam"},"geometry":{"coordinates":[4.9400113,52.3578448],"type":"Point"}},
{"type":"Feature","id":"osm:node:412067392","properties":{"addr:city":"Amsterdam","addr:housenumber":"64","addr:postcode":"1062BJ","addr:street":"Derkinderenstraat","amenity":"atm","address":"Derkinderenstraat 64, Amsterdam"},"geometry":{"coordinates":[4.8406803,52.3620835],"type":"Point"}},
{"type":"Feature","id":"osm:node:412161775","properties":{"addr:city":"Amsterdam","addr:housenumber":"5","addr:postcode":"1082LT","addr:street":"Willem van Weldammelaan","name":"Bibl. Buitenveldert","amenity":"library","address":"Willem van Weldammelaan 5, Amsterdam"},"geometry":{"coordinates":[4.8759451,52.3326071],"type":"Point"}},