{"type": "FeatureCollection", "features": [{"type":"Feature","properties":{"amenity":"post_box"},"geometry":{"coordinates":[4.9159929,52.3712759],"type":"Point"}},
{"type":"Feature","properties":{"amenity":"post_box"},"geometry":{"coordinates":[4.8966872,52.3593831],"type":"Point"}},
{"type":"Feature","properties":{"name":"UvA Faculteit der Economische Wetenschappen en Econometrie","amenity":"university"},"geometry":{"coordinates":[4.9115429,52.3637734],"type":"Point"}},
{"type":"Feature","properties":{"name":"Texaco Sarphatistraat","amenity":"fuel"},"geometry":{"coordinates":[4.9243049,52.366928],"type":"Point"}},
{"type":"Feature","properties":{"addr:city":"Amsterdam","addr:housenumber":"325","addr:postcode":"1093 BS","addr:street":"Dapperstraat","name":"Kazerne Victor","amenity":"fire_station","address":"Dapperstraat 325, Amsterdam"},"geometry":{"coordinates":[4.9291697,52.3604587],"type":"Point"}},
{"type":"Feature","properties":{"name":"El Mousshine","amenity":"place_of_worship"},"geometry":{"coordinates":[4.9132723,52.3833541],"type":"Point"}},
{"type":"Feature","properties":{"name":"OBS IJplein","amenity":"school"},"geometry":{"coordinates":[4.9132037,52.381326],"type":"Point"}},
{"type":"Feature","properties":{"amenity":"post_box"},"geometry":{"coordinates":[4.9237503,52.3582852],"type":"Point"}},
{"type":"Feature","properties":{"amenity":"post_box"},"geometry":{"coordinates":[4.8881781,52.3775161],"type":"Point"}},
{"type":"Feature","properties":{"amenity":"post_box"},"geometry":{"coordinates":[4.8730854,52.3634121],"type":"Point"}},
{"type":"Feature","properties":{"amenity":"parking"},"geometry":{"coordinates":[4.8630185,52.3605116],"type":"Point"}},
{"type":"Feature","properties":{"addr:city":"Amsterdam","addr:housenumber":"89","addr:postcode":"1054HC","addr:street":"Overtoom","name":"ABN AMRO","amenity":"atm","address":"Overtoom 89, Amsterdam"},"geometry":{"coordinates":[4.8748206,52.3627969],"type":"Point"}},
{"type":"Feature","properties":{"amenity":"recycling"},"geometry":{"coordinates":[4.8708759,52.3815303],"type":"Point"}},
{"type":"Feature","properties":{"amenity":"post_box"},"geometry":{"coordinates":[4.8714701,52.3797976],"type":"Point"}},
{"type":"Feature","properties":{"amenity":"post_box"},"geometry":{"coordinates":[4.8693928,52.361065],"type":"Point"}},
{"type":"Feature","properties":{"amenity":"recycling"},"geometry":{"coordinates":[4.8759303,52.3554908],"type":"Point"}},
{"type":"Feature","properties":{"addr:city":"Amsterdam","addr:postcode":"1071JH","addr:street":"Cornelis Schuytstraat","name":"ABN AMRO","amenity":"atm"},"geometry":{"coordinates":[4.8718783,52.3543157],"type":"Point"}},
{"type":"Feature","properties":{"amenity":"recycling"},"geometry":{"coordinates":[4.8722941,52.3574226],"type":"Point"}},
{"type":"Feature","properties":{"amenity":"recycling"},"geometry":{"coordinates":[4.8703423,52.3566718],"type":"Point"}},
{"type":"Feature","properties":{"amenity":"post_box"},"geometry":{"coordinates":[4.8701191,52.3566089],"type":"Point"}},
{"type":"Feature","properties":{"amenity":"recycling"},"geometry":{"coordinates":[4.8776676,52.3587698],"type":"Point"}},
{"type":"Feature","properties":{"amenity":"post_box"},"geometry":{"coordinates":[4.8775174,52.3585075],"type":"Point"}},
{"type":"Feature","properties":{"amenity":"recycling"},"geometry":{"coordinates":[4.8626158,52.3546437],"type":"Point"}},
{"type":"Feature","properties":{"amenity":"post_box"},"geometry":{"coordinates":[4.8626421,52.3548104],"type":"Point"}},
{"type":"Feature","properties":{"amenity":"post_box"},"geometry":{"coordinates":[4.8557853,52.3545992],"type":"Point"}},
{"type":"Feature","properties":{"amenity":"post_box"},"geometry":{"coordinates":[4.8844036,52.3611674],"type":"Point"}},
{"type":"Feature","properties":{"amenity":"post_box"},"geometry":{"coordinates":[4.8681141,52.368225],"type":"Point"}},
{"type":"Feature","properties":{"amenity":"post_box"},"geometry":{"coordinates":[4.9145745,52.34615],"type":"Point"}},
{"type":"Feature","properties":{"amenity":"recycling"},"geometry":{"coordinates":[4.9145203,52.3459442],"type":"Point"}},
{"type":"Feature","properties":{"addr:city":"Amsterdam","addr:housenumber":"11","addr:postcode":"1095 KG","addr:street":"IJburglaan","name":"Kriterion","amenity":"fuel","shop":"convenience","address":"IJburglaan 11, Amsterdam"},"geometry":{"coordinates":[4.9707321,52.3688826],"type":"Point"}},
{"type":"Feature","properties":{"addr:city":"Amsterdam","addr:housenumber":"4","addr:postcode":"1019BM","addr:street":"Oostelijke Handelskade","name":"Panama","amenity":"nightclub","address":"Oostelijke Handelskade 4, Amsterdam"},"geometry":{"coordinates":[4.9304264,52.3749358],"type":"Point"}},
{"type":"Feature","properties":{"amenity":"post_box"},"geometry":{"coordinates":[4.9396303,52.3614569],"type":"Point"}},
{"type":"Feature","properties":{"amenity":"post_box"},"geometry":{"coordinates":[4.942265,52.3604029],"type":"Point"}},
{"type":"Feature","properties":{"amenity":"post_box"},"geometry":{"coordinates":[4.8889379,52.349034],"type":"Point"}},
{"type":"Feature","properties":{"amenity":"recycling"},"geometry":{"coordinates":[4.8867258,52.35207],"type":"Point"}},
{"type":"Feature","properties":{"amenity":"post_box"},"geometry":{"coordinates":[4.8989315,52.3542286],"type":"Point"}},
{"type":"Feature","properties":{"name":"Eiburgh Snacks","amenity":"fast_food"},"geometry":{"coordinates":[4.9630011,52.3707789],"type":"Point"}},
{"type":"Feature","properties":{"addr:city":"Amsterdam","addr:housenumber":"56","addr:postcode":"1081 KG","addr:street":"Koenenkade","name":"Boerderij Meerzicht","amenity":"cafe","address":"Koenenkade 56, Amsterdam"},"geometry":{"coordinates":[4.8206896,52.3262661],"type":"Point"}},
{"type":"Feature","properties":{"addr:city":"Amsterdam","addr:housenumber":"36","addr:postcode":"1076 CM","addr:street":"Stadionplein","name":"Total","amenity":"fuel","address":"Stadionplein 36, Amsterdam"},"geometry":{"coordinates":[4.8569984,52.34266],"type":"Point"}},
{"type":"Feature","properties":{"addr:city":"Amsterdam","addr:housenumber":"113","addr:postcode":"1076 BN","addr:street":"Stadionkade","name":"Olympiaschool","amenity":"school","address":"Stadionkade 113, Amsterdam"},"geometry":{"coordinates":[4.8622625,52.343361],"type":"Point"}},
{"type":"Feature","properties":{"amenity":"post_box"},"geometry":{"coordinates":[4.8647762,52.3450271],"type":"Point"}},
{"type":"Feature","properties":{"amenity":"post_box"},"geometry":{"coordinates":[4.8603101,52.3429097],"type":"Point"}},
{"type":"Feature","properties":{"amenity":"recycling"},"geometry":{"coordinates":[4.8604202,52.3427857],"type":"Point"}},
{"type":"Feature","properties":{"amenity":"recycling"},"geometry":{"coordinates":[4.8611044,52.3437307],"type":"Point"}},
{"type":"Feature","properties":{"amenity":"post_box"},"geometry":{"coordinates":[4.8538289,52.3585629],"type":"Point"}},
{"type":"Feature","properties":{"amenity":"recycling"},"geometry":{"coordinates":[4.8538779,52.3584574],"type":"Point"}},
{"type":"Feature","properties":{"amenity":"post_box"},"geometry":{"coordinates":[4.8535194,52.3602574],"type":"Point"}},
{"type":"Feature","properties":{"amenity":"post_box"},"geometry":{"coordinates":[4.8570385,52.3612962],"type":"Point"}},
{"type":"Feature","properties":{"amenity":"recycling"},"geometry":{"coordinates":[4.856627,52.3603325],"type":"Point"}},
{"type":"Feature","properties":{"amenity":"recycling"},"geometry":{"coordinates":[4.8751608,52.3565629],"type":"Point"}},
{"type":"Feature","properties":{"amenity":"post_box"},"geometry":{"coordinates":[4.8751522,52.3566206],"type":"Point"}},
{"type":"Feature","properties":{"amenity":"recycling"},"geometry":{"coordinates":[4.8759509,52.3554753],"type":"Point"}},
{"type":"Feature","properties":{"amenity":"post_box"},"geometry":{"coordinates":[4.8715483,52.354232],"type":"Point"}},
{"type":"Feature","properties":{"addr:city":"Amsterdam","addr:housenumber":"40","addr:postcode":"1075BJ","addr:street":"Valeriusplein","name":"ABN AMRO","amenity":"atm","address":"Valeriusplein 40, Amsterdam"},"geometry":{"coordinates":[4.8639932,52.3517679],"type":"Point"}},
{"type":"Feature","properties":{"addr:city":"Amsterdam","addr:housenumber":"269","addr:postcode":"1075 CW","addr:street":"Koninginneweg","name":"Zwarte Fietsenplan","shop":"bicycle","address":"Koninginneweg 269, Amsterdam"},"geometry":{"coordinates":[4.8572723,52.3515806],"type":"Point"}},
{"type":"Feature","properties":{"amenity":"post_box"},"geometry":{"coordinates":[4.8602276,52.3518973],"type":"Point"}},
{"type":"Feature","properties":{"amenity":"post_box"},"geometry":{"coordinates":[4.8635978,52.3705251],"type":"Point"}},
{"type":"Feature","properties":{"amenity":"recycling"},"geometry":{"coordinates":[4.8613077,52.3701797],"type":"Point"}},
{"type":"Feature","properties":{"amenity":"post_box"},"geometry":{"coordinates":[4.859174,52.3687954],"type":"Point"}},
{"type":"Feature","properties":{"amenity":"post_box"},"geometry":{"coordinates":[4.8682182,52.3617341],"type":"Point"}},
{"type":"Feature","properties":{"amenity":"recycling"},"geometry":{"coordinates":[4.8680122,52.3620157],"type":"Point"}},
{"type":"Feature","properties":{"addr:city":"Amsterdam","addr:housenumber":"5","addr:postcode":"1075 PR","addr:street":"Havenstraat","name":"BP","amenity":"fuel","address":"Havenstraat 5, Amsterdam"},"geometry":{"coordinates":[4.8553261,52.3490284],"type":"Point"}},
{"type":"Feature","properties":{"amenity":"post_box"},"geometry":{"coordinates":[4.852416,52.3498011],"type":"Point"}},
{"type":"Feature","properties":{"addr:city":"Landsmeer","addr:street":"IJdoornlaan","name":"BP Kadoelen","amenity":"fuel","shop":"convenience"},"geometry":{"coordinates":[4.9121767,52.4195943],"type":"Point"}},
{"type":"Feature","properties":{"amenity":"post_box"},"geometry":{"coordinates":[4.8664824,52.3935888],"type":"Point"}},
{"type":"Feature","properties":{"amenity":"post_box"},"geometry":{"coordinates":[4.8864267,52.3611478],"type":"Point"}},
{"type":"Feature","properties":{"amenity":"recycling"},"geometry":{"coordinates":[4.8524342,52.3555468],"type":"Point"}},
{"type":"Feature","properties":{"amenity":"post_box"},"geometry":{"coordinates":[4.8515764,52.3534361],"type":"Point"}},
{"type":"Feature","properties":{"amenity":"recycling"},"geometry":{"coordinates":[4.8514157,52.3533988],"type":"Point"}},
{"type":"Feature","properties":{"addr:city":"Amsterdam","addr:housenumber":"16","addr:postcode":"1058PD","addr:street":"Hoofddorpplein","name":"ABN AMRO","amenity":"atm","address":"Hoofddorpplein 16, Amsterdam"},"geometry":{"coordinates":[4.850217,52.3517954],"type":"Point"}},
{"type":"Feature","properties":{"amenity":"recycling"},"geometry":{"coordinates":[4.9710933,52.3424178],"type":"Point"}},
{"type":"Feature","properties":{"amenity":"post_box"},"geometry":{"coordinates":[4.970967,52.3424253],"type":"Point"}},
{"type":"Feature","properties":{"addr:city":"Amsterdam","addr:housenumber":"34","addr:postcode":"1057 VB","addr:street":"Columbusplein","name":"De Visserschool","amenity":"school","address":"Columbusplein 34, Amsterdam"},"geometry":{"coordinates":[4.8549605,52.3668387],"type":"Point"}},
{"type":"Feature","properties":{"amenity":"recycling"},"geometry":{"coordinates":[4.8538436,52.3696],"type":"Point"}},
{"type":"Feature","properties":{"amenity":"recycling"},"geometry":{"coordinates":[4.8540525,52.3685882],"type":"Point"}},
{"type":"Feature","properties":{"amenity":"recycling"},"geometry":{"coordinates":[4.85532,52.3682408],"type":"Point"}},
{"type":"Feature","properties":{"amenity":"post_box"},"geometry":{"coordinates":[4.8526938,52.367171],"type":"Point"}},
{"type":"Feature","properties":{"amenity":"recycling"},"geometry":{"coordinates":[4.85505,52.3658092],"type":"Point"}},
{"type":"Feature","properties":{"amenity":"post_box"},"geometry":{"coordinates":[4.855117,52.3643489],"type":"Point"}},
{"type":"Feature","properties":{"addr:city":"Amsterdam","addr:housenumber":"78","addr:postcode":"1057EE","addr:street":"Postjesweg","name":"ING","amenity":"atm","address":"Postjesweg 78, Amsterdam"},"geometry":{"coordinates":[4.8551131,52.3644215],"type":"Point"}},
{"type":"Feature","properties":{"amenity":"recycling"},"geometry":{"coordinates":[4.8517237,52.3691838],"type":"Point"}},
{"type":"Feature","properties":{"addr:city":"Amsterdam","addr:housenumber":"581","addr:postcode":"1093LC","addr:street":"Eerste van Swindenstraat","name":"Bar Botanique Cafe Tropique","amenity":"pub","address":"Eerste van Swindenstraat 581, Amsterdam"},"geometry":{"coordinates":[4.9303211,52.3634368],"type":"Point"}},
{"type":"Feature","properties":{"amenity":"post_box"},"geometry":{"coordinates":[4.9290419,52.3675842],"type":"Point"}},
{"type":"Feature","properties":{"amenity":"post_box"},"geometry":{"coordinates":[4.9236104,52.3632478],"type":"Point"}},
{"type":"Feature","properties":{"amenity":"recycling"},"geometry":{"coordinates":[4.9242474,52.3664274],"type":"Point"}},
{"type":"Feature","properties":{"amenity":"post_box"},"geometry":{"coordinates":[4.9250164,52.3668452],"type":"Point"}},
{"type":"Feature","properties":{"amenity":"post_box"},"geometry":{"coordinates":[4.9275742,52.3655297],"type":"Point"}},
{"type":"Feature","properties":{"amenity":"post_box"},"geometry":{"coordinates":[4.9280589,52.3558476],"type":"Point"}},
{"type":"Feature","properties":{"amenity":"post_box"},"geometry":{"coordinates":[4.9301587,52.3557165],"type":"Point"}},
{"type":"Feature","properties":{"amenity":"recycling"},"geometry":{"coordinates":[4.9352139,52.3570302],"type":"Point"}},
{"type":"Feature","properties":{"amenity":"post_box"},"geometry":{"coordinates":[4.9362203,52.3584977],"type":"Point"}},
{"type":"Feature","properties":{"addr:city":"Amsterdam","addr:street":"Ringweg Zuid","name":"Kiosk","amenity":"cafe"},"geometry":{"coordinates":[4.8735401,52.3392121],"type":"Point"}},
{"type":"Feature","properties":{"addr:city":"Amsterdam","addr:housenumber":"7","addr:postcode":"1017 PR","addr:street":"Leidseplein","name":"Burger King","amenity":"fast_food","address":"Leidseplein 7, Amsterdam"},"geometry":{"coordinates":[4.8835118,52.364178],"type":"Point"}},
{"type":"Feature","properties":{"name":"Burger King","amenity":"fast_food"},"geometry":{"coordinates":[4.8504678,52.392326],"type":"Point"}},
{"type":"Feature","properties":{"name":"Burger King","amenity":"fast_food"},"geometry":{"coordinates":[4.9181737,52.3463966],"type":"Point"}},
{"type":"Feature","properties":{"addr:city":"Amsterdam","addr:housenumber":"218","addr:postcode":"1012MX","addr:street":"Nieuwendijk","name":"Burger King","amenity":"fast_food","address":"Nieuwendijk 218, Amsterdam"},"geometry":{"coordinates":[4.8927282,52.3737828],"type":"Point"}},
{"type":"Feature","properties":{"addr:city":"Amsterdam","addr:housenumber":"15-17","addr:street":"Reguliersbreestraat","name":"Burger King","amenity":"fast_food","address":"Reguliersbreestraat 15-17, Amsterdam"},"geometry":{"coordinates":[4.8943072,52.3668263],"type":"Point"}},
{"type":"Feature","properties":{"name":"Burger King","amenity":"fast_food"},"geometry":{"coordinates":[4.9467114,52.292582],"type":"Point"}},
{"type":"Feature","properties":{"name":"Sizzling Wok","amenity":"restaurant"},"geometry":{"coordinates":[4.9475644,52.2929232],"type":"Point"}},
{"type":"Feature","properties":{"name":"De Roode Leeuw","amenity":"restaurant"},"geometry":{"coordinates":[4.8935952,52.3737497],"type":"Point"}},
{"type":"Feature","properties":{"addr:city":"Amsterdam","addr:housenumber":"9","addr:postcode":"1017CK","addr:street":"Muntplein","name":"McDonald's","amenity":"fast_food","address":"Muntplein 9, Amsterdam"},"geometry":{"coordinates":[4.8934827,52.3666856],"type":"Point"}},
{"type":"Feature","properties":{"addr:city":"Amsterdam","addr:housenumber":"526","addr:postcode":"1102DP","addr:street":"Bijlmerplein","name":"Albert Heijn","shop":"supermarket","address":"Bijlmerplein 526, Amsterdam"},"geometry":{"coordinates":[4.9550989,52.3156194],"type":"Point"}},
{"type":"Feature","properties":{"addr:city":"Amsterdam","addr:housenumber":"31","addr:postcode":"1062HP","addr:street":"Delflandplein","name":"Albert Heijn","shop":"supermarket","address":"Delflandplein 31, Amsterdam"},"geometry":{"coordinates":[4.8402692,52.34894],"type":"Point"}},
{"type":"Feature","properties":{"addr:city":"Amsterdam","addr:housenumber":"78","addr:postcode":"1065 LN","addr:street":"Sierplein","name":"Albert Heijn","shop":"supermarket","address":"Sierplein 78, Amsterdam"},"geometry":{"coordinates":[4.8267734,52.3549932],"type":"Point"}},
{"type":"Feature","properties":{"addr:city":"Amsterdam","addr:housenumber":"3","addr:postcode":"1092 JZ","addr:street":"Krugerplein","name":"Albert Heijn","shop":"supermarket","address":"Krugerplein 3, Amsterdam"},"geometry":{"coordinates":[4.9201804,52.3547176],"type":"Point"}},
{"type":"Feature","properties":{"addr:city":"Amsterdam","addr:housenumber":"33a","addr:postcode":"1071 AP","addr:street":"Van Baerlestraat","name":"Albert Heijn","shop":"supermarket","address":"Van Baerlestraat 33a, Amsterdam"},"geometry":{"coordinates":[4.8800081,52.3572549],"type":"Point"}},
{"type":"Feature","properties":{"addr:city":"Amsterdam","addr:housenumber":"150","addr:postcode":"1073 LV","addr:street":"Van Woustraat","name":"Albert Heijn","shop":"supermarket","address":"Van Woustraat 150, Amsterdam"},"geometry":{"coordinates":[4.9026013,52.3527583],"type":"Point"}},
{"type":"Feature","properties":{"addr:city":"Amsterdam","addr:housenumber":"159","addr:postcode":"1076 NN","addr:street":"Stadionweg","name":"Albert Heijn","shop":"supermarket","address":"Stadionweg 159, Amsterdam"},"geometry":{"coordinates":[4.8636889,52.3457535],"type":"Point"}},
{"type":"Feature","properties":{"addr:city":"Amsterdam","addr:housenumber":"47","addr:postcode":"1082KZ","addr:street":"Gelderlandplein","name":"Albert Heijn XL","shop":"supermarket","address":"Gelderlandplein 47, Amsterdam"},"geometry":{"coordinates":[4.8785321,52.3310249],"type":"Point"}},
{"type":"Feature","properties":{"addr:city":"Amsterdam","addr:housenumber":"149","addr:postcode":"1071 NB","addr:street":"Johannes Verhulststraat","name":"Albert Heijn","shop":"supermarket","address":"Johannes Verhulststraat 149, Amsterdam"},"geometry":{"coordinates":[4.8696893,52.3536441],"type":"Point"}},
{"type":"Feature","properties":{"addr:city":"Amsterdam","addr:housenumber":"65","addr:postcode":"1057 DW","addr:street":"Postjesweg","name":"Albert Heijn","shop":"supermarket","address":"Postjesweg 65, Amsterdam"},"geometry":{"coordinates":[4.855153,52.3640618],"type":"Point"}},
{"type":"Feature","properties":{"addr:city":"Amsterdam","addr:housenumber":"12","addr:postcode":"1062 AC","addr:street":"August Allebéplein","name":"Albert Heijn","shop":"supermarket","address":"August Allebéplein 12, Amsterdam"},"geometry":{"coordinates":[4.8375816,52.3636734],"type":"Point"}},
{"type":"Feature","properties":{"addr:city":"Amsterdam","addr:housenumber":"1065","addr:postcode":"1019 BW","addr:street":"Oostelijke Handelskade","name":"Albert Heijn","shop":"supermarket","address":"Oostelijke Handelskade 1065, Amsterdam"},"geometry":{"coordinates":[4.9386474,52.3739643],"type":"Point"}},
{"type":"Feature","properties":{"addr:city":"Amsterdam","addr:housenumber":"1","addr:postcode":"1013JZ","addr:street":"Haarlemmerdijk","name":"Albert Heijn","shop":"supermarket","address":"Haarlemmerdijk 1, Amsterdam"},"geometry":{"coordinates":[4.8888813,52.3816138],"type":"Point"}},
{"type":"Feature","properties":{"addr:city":"Amsterdam","addr:housenumber":"21","addr:postcode":"1016 DJ","addr:street":"Westermarkt","name":"Albert Heijn","shop":"supermarket","address":"Westermarkt 21, Amsterdam"},"geometry":{"coordinates":[4.8839268,52.3738812],"type":"Point"}},
{"type":"Feature","properties":{"addr:city":"Amsterdam","addr:housenumber":"79","addr:postcode":"1015 LW","addr:street":"Westerstraat","name":"Albert Heijn","shop":"supermarket","address":"Westerstraat 79, Amsterdam"},"geometry":{"coordinates":[4.8844536,52.3784456],"type":"Point"}},
{"type":"Feature","properties":{"addr:city":"Amsterdam","addr:housenumber":"101A","addr:postcode":"1095 AZ","addr:street":"Molukkenstraat","name":"Albert Heijn","shop":"supermarket","address":"Molukkenstraat 101A, Amsterdam"},"geometry":{"coordinates":[4.939828,52.3625655],"type":"Point"}},
{"type":"Feature","properties":{"addr:city":"Amsterdam","addr:housenumber":"91","addr:postcode":"1093 EZ","addr:street":"Eerste van Swindenstraat","name":"Albert Heijn","shop":"supermarket","address":"Eerste van Swindenstraat 91, Amsterdam"},"geometry":{"coordinates":[4.9256245,52.3624321],"type":"Point"}},
{"type":"Feature","properties":{"addr:city":"Amsterdam","addr:housenumber":"18","addr:postcode":"1012CR","addr:street":"Nieuwmarkt","name":"Albert Heijn","shop":"supermarket","address":"Nieuwmarkt 18, Amsterdam"},"geometry":{"coordinates":[4.8997302,52.3726884],"type":"Point"}},
{"type":"Feature","properties":{"addr:city":"Amsterdam","addr:housenumber":"113","addr:postcode":"1017 HJ","addr:street":"Vijzelstraat","name":"Albert Heijn","shop":"supermarket","address":"Vijzelstraat 113, Amsterdam"},"geometry":{"coordinates":[4.8922067,52.362843],"type":"Point"}},
{"type":"Feature","properties":{"addr:city":"Amsterdam","addr:housenumber":"13A","addr:postcode":"1016 TM","addr:street":"Elandsgracht","name":"Albert Heijn","shop":"supermarket","address":"Elandsgracht 13A, Amsterdam"},"geometry":{"coordinates":[4.8819811,52.3698566],"type":"Point"}},
{"type":"Feature","properties":{"addr:city":"Amsterdam","addr:housenumber":"116-124","addr:postcode":"1054 HM","addr:street":"Overtoom","name":"Albert Heijn","shop":"supermarket","address":"Overtoom 116-124, Amsterdam"},"geometry":{"coordinates":[4.8746398,52.3627631],"type":"Point"}},
{"type":"Feature","properties":{"addr:city":"Amsterdam","addr:housenumber":"41","addr:postcode":"1081CR","addr:street":"Bolestein","name":"ALDI","shop":"supermarket","address":"Bolestein 41, Amsterdam"},"geometry":{"coordinates":[4.8598999,52.3258987],"type":"Point"}},
{"type":"Feature","properties":{"name":"ALDI","shop":"supermarket"},"geometry":{"coordinates":[4.9086625,52.3438435],"type":"Point"}},
{"type":"Feature","properties":{"addr:city":"Amsterdam","addr:housenumber":"24","addr:postcode":"1017 ZX","addr:street":"Nieuwe Weteringstraat","name":"ALDI","shop":"supermarket","address":"Nieuwe Weteringstraat 24, Amsterdam"},"geometry":{"coordinates":[4.8902035,52.360578],"type":"Point"}},
{"type":"Feature","properties":{"name":"Aldi","shop":"supermarket"},"geometry":{"coordinates":[4.8886114,52.3500811],"type":"Point"}},
{"type":"Feature","properties":{"addr:city":"Amsterdam","addr:housenumber":"126","addr:postcode":"1106MC","addr:street":"Wisseloord","name":"Jumbo","shop":"supermarket","address":"Wisseloord 126, Amsterdam"},"geometry":{"coordinates":[4.9875496,52.2969452],"type":"Point"}},
{"type":"Feature","properties":{"name":"Jumbo","shop":"supermarket"},"geometry":{"coordinates":[4.93575,52.3991],"type":"Point"}},
{"type":"Feature","properties":{"name":"Jumbo Amsterdam Kastelenstraat","shop":"supermarket"},"geometry":{"coordinates":[4.8831902,52.326307],"type":"Point"}},
{"type":"Feature","properties":{"addr:city":"Amsterdam","addr:housenumber":"80","addr:postcode":"1091 GP","addr:street":"Wibautstraat","name":"Albert Heijn","shop":"supermarket","address":"Wibautstraat 80, Amsterdam"},"geometry":{"coordinates":[4.9107921,52.3557456],"type":"Point"}},
{"type":"Feature","properties":{"addr:housenumber":"808","addr:postcode":"1060TZ","addr:street":"Pieter Calandlaan","name":"Jumbo De Aker","shop":"supermarket"},"geometry":{"coordinates":[4.786632,52.3497202],"type":"Point"}},
{"type":"Feature","properties":{"addr:city":"Amsterdam","addr:housenumber":"43","addr:postcode":"1094EN","addr:street":"Celebesstraat","name":"Albert Heijn","shop":"supermarket","address":"Celebesstraat 43, Amsterdam"},"geometry":{"coordinates":[4.9316912,52.3632647],"type":"Point"}},
{"type":"Feature","properties":{"addr:city":"Diemen","addr:housenumber":"200","addr:postcode":"1111JD","addr:street":"Diemerplein","name":"Albert Heijn XL","shop":"supermarket","address":"Diemerplein 200, Diemen"},"geometry":{"coordinates":[4.9629445,52.342382],"type":"Point"}},
{"type":"Feature","properties":{"name":"Dirk vd Broek","shop":"supermarket"},"geometry":{"coordinates":[4.871,52.368],"type":"Point"}},
{"type":"Feature","properties":{"name":"Dirk van den Broek","shop":"supermarket"},"geometry":{"coordinates":[4.8778677,52.382555],"type":"Point"}},
{"type":"Feature","properties":{"name":"Oudemanhuispoort (UvA)","amenity":"university"},"geometry":{"coordinates":[4.8960412,52.3693745],"type":"Point"}},
{"type":"Feature","properties":{"addr:city":"Amsterdam","addr:housenumber":"249","addr:postcode":"1068 ER","addr:street":"Osdorpplein","name":"Parkking Osdorpplein","amenity":"parking","address":"Osdorpplein 249, Amsterdam"},"geometry":{"coordinates":[4.8055146,52.3600665],"type":"Point"}},
{"type":"Feature","properties":{"amenity":"parking"},"geometry":{"coordinates":[4.943042,52.3063308],"type":"Point"}},
{"type":"Feature","properties":{"name":"De Entree Corridor","amenity":"parking"},"geometry":{"coordinates":[4.9390953,52.3107482],"type":"Point"}},
{"type":"Feature","properties":{"addr:city":"Amsterdam","addr:housenumber":"700","addr:postcode":"1102 DZ","addr:street":"Bijlmerdreef","name":"Q-park P23","amenity":"parking","address":"Bijlmerdreef 700, Amsterdam"},"geometry":{"coordinates":[4.9541175,52.3161647],"type":"Point"}},
{"type":"Feature","properties":{"name":"Willem van Weldammelaan","amenity":"parking"},"geometry":{"coordinates":[4.8757165,52.3301082],"type":"Point"}},
{"type":"Feature","properties":{"name":"Jan van Gentstraat","amenity":"fuel"},"geometry":{"coordinates":[4.7949,52.33569],"type":"Point"}},
{"type":"Feature","properties":{"name":"Strawinskylaan","amenity":"parking"},"geometry":{"coordinates":[4.8707973,52.3407819],"type":"Point"}},
{"type":"Feature","properties":{"name":"Frederik Roeskestraat","amenity":"parking"},"geometry":{"coordinates":[4.8600817,52.3409695],"type":"Point"}},
{"type":"Feature","properties":{"name":"IJsbaanpad","amenity":"parking"},"geometry":{"coordinates":[4.8570897,52.3411623],"type":"Point"}},
{"type":"Feature","properties":{"name":"S109","amenity":"parking"},"geometry":{"coordinates":[4.8895519,52.3440184],"type":"Point"}},
{"type":"Feature","properties":{"name":"Louwesweg","amenity":"parking"},"geometry":{"coordinates":[4.8252493,52.3466741],"type":"Point"}},
{"type":"Feature","properties":{"amenity":"parking"},"geometry":{"coordinates":[4.97854,52.34893],"type":"Point"}},
{"type":"Feature","properties":{"amenity":"parking"},"geometry":{"coordinates":[4.977999,52.3492905],"type":"Point"}},
{"type":"Feature","properties":{"addr:city":"Amsterdam","addr:housenumber":"13","addr:postcode":"1062 HH","addr:street":"Koningin Wilhelminaplein","name":"World Fashion Centre","amenity":"parking","address":"Koningin Wilhelminaplein 13, Amsterdam"},"geometry":{"coordinates":[4.8416089,52.352604],"type":"Point"}},
{"type":"Feature","properties":{"name":"Carnapstraat","amenity":"parking"},"geometry":{"coordinates":[4.8392399,52.3542003],"type":"Point"}},
{"type":"Feature","properties":{"amenity":"taxi"},"geometry":{"coordinates":[4.8783775,52.3556787],"type":"Point"}},
{"type":"Feature","properties":{"name":"Flevoparkweg","amenity":"parking"},"geometry":{"coordinates":[4.9493184,52.3661447],"type":"Point"}},
{"type":"Feature","properties":{"name":"Osdorperweg","amenity":"fuel"},"geometry":{"coordinates":[4.7827577,52.3677437],"type":"Point"}},
{"type":"Feature","properties":{"name":"Texaco Marnixstraat","amenity":"fuel"},"geometry":{"coordinates":[4.8769652,52.3699139],"type":"Point"}},
{"type":"Feature","properties":{"name":"Nicolaas Ruychaverstraat","amenity":"parking"},"geometry":{"coordinates":[4.8012521,52.3769401],"type":"Point"}},
{"type":"Feature","properties":{"name":"S207","amenity":"parking"},"geometry":{"coordinates":[4.8236527,52.380159],"type":"Point"}},
{"type":"Feature","properties":{"amenity":"ferry_terminal"},"geometry":{"coordinates":[4.9083182,52.3817779],"type":"Point"}},
{"type":"Feature","properties":{"name":"Haarlemmerdijk","amenity":"parking"},"geometry":{"coordinates":[4.8850962,52.3838363],"type":"Point"}},
{"type":"Feature","properties":{"amenity":"parking"},"geometry":{"coordinates":[4.9095076,52.3910258],"type":"Point"}},
{"type":"Feature","properties":{"amenity":"parking"},"geometry":{"coordinates":[4.9105205,52.3912127],"type":"Point"}},
{"type":"Feature","properties":{"name":"Veer Distelweg"},"geometry":{"coordinates":[4.8963382,52.3958239],"type":"Point"}},
{"type":"Feature","properties":{"amenity":"parking"},"geometry":{"coordinates":[4.9237007,52.4046445],"type":"Point"}},
{"type":"Feature","properties":{"addr:housenumber":"1","addr:postcode":"1091LB","addr:street":"Krugerstraat","name":"Transvaal Alphega-apotheek","amenity":"pharmacy"},"geometry":{"coordinates":[4.9193777,52.3535608],"type":"Point"}},
{"type":"Feature","properties":{"addr:city":"Amsterdam","addr:housenumber":"6","addr:postcode":"1091KG","addr:street":"Beukenplein","name":"ING","amenity":"atm","address":"Beukenplein 6, Amsterdam"},"geometry":{"coordinates":[4.9175698,52.3574395],"type":"Point"}},
{"type":"Feature","properties":{"name":"Primera","amenity":"post_office","shop":"newsagent"},"geometry":{"coordinates":[4.9175215,52.3573806],"type":"Point"}},
{"type":"Feature","properties":{"name":"MacBike","amenity":"bicycle_rental"},"geometry":{"coordinates":[4.9023871,52.3670639],"type":"Point"}},
{"type":"Feature","properties":{"addr:city":"Amsterdam","addr:housenumber":"61","addr:postcode":"1018VN","addr:street":"Weesperstraat","name":"ABN AMRO","amenity":"atm","address":"Weesperstraat 61, Amsterdam"},"geometry":{"coordinates":[4.9061473,52.3649108],"type":"Point"}},
{"type":"Feature","properties":{"addr:city":"Amsterdam","addr:housenumber":"96","addr:postcode":"1011NS","addr:street":"Jodenbreestraat","name":"ABN AMRO","amenity":"atm","address":"Jodenbreestraat 96, Amsterdam"},"geometry":{"coordinates":[4.9024029,52.3689098],"type":"Point"}},
{"type":"Feature","properties":{"addr:housenumber":"92","addr:postcode":"1094NJ","addr:street":"Sumatrastraat","name":"Sumatra Apotheek","amenity":"pharmacy"},"geometry":{"coordinates":[4.9360633,52.3616998],"type":"Point"}},
{"type":"Feature","properties":{"name":"Joe's Garage","amenity":"recycling"},"geometry":{"coordinates":[4.9250058,52.355607],"type":"Point"}},
{"type":"Feature","properties":{"addr:city":"Amsterdam","addr:housenumber":"245","addr:postcode":"1093 ER","addr:street":"Linnaeusstraat","name":"HEMA Amsterdam-Linnaeusstraat","shop":"department_store","address":"Linnaeusstraat 245, Amsterdam"},"geometry":{"coordinates":[4.9283378,52.355643],"type":"Point"}},
{"type":"Feature","properties":{"amenity":"recycling"},"geometry":{"coordinates":[4.9167483,52.3530636],"type":"Point"}},
{"type":"Feature","properties":{"amenity":"post_box"},"geometry":{"coordinates":[4.8455499,52.3453597],"type":"Point"}},
{"type":"Feature","properties":{"amenity":"recycling"},"geometry":{"coordinates":[4.8922617,52.362889],"type":"Point"}},
{"type":"Feature","properties":{"amenity":"recycling"},"geometry":{"coordinates":[4.8863479,52.3620877],"type":"Point"}},
{"type":"Feature","properties":{"amenity":"post_box"},"geometry":{"coordinates":[4.9216802,52.3378386],"type":"Point"}},
{"type":"Feature","properties":{"amenity":"recycling"},"geometry":{"coordinates":[4.9118905,52.3506784],"type":"Point"}},
{"type":"Feature","properties":{"amenity":"post_box"},"geometry":{"coordinates":[4.9113639,52.3519132],"type":"Point"}},
{"type":"Feature","properties":{"amenity":"recycling"},"geometry":{"coordinates":[4.9085846,52.354597],"type":"Point"}},
{"type":"Feature","properties":{"amenity":"recycling"},"geometry":{"coordinates":[4.9063702,52.3578733],"type":"Point"}},
{"type":"Feature","properties":{"amenity":"post_box"},"geometry":{"coordinates":[4.9014482,52.3597317],"type":"Point"}},
{"type":"Feature","properties":{"amenity":"post_box"},"geometry":{"coordinates":[4.8933741,52.3595741],"type":"Point"}},
{"type":"Feature","properties":{"addr:city":"Amsterdam","addr:housenumber":"566","addr:postcode":"1017EM","addr:street":"Keizersgracht","name":"Keizersgrachtkerk","amenity":"place_of_worship","address":"Keizersgracht 566, Amsterdam"},"geometry":{"coordinates":[4.8880282,52.3645621],"type":"Point"}},
{"type":"Feature","properties":{"amenity":"parking"},"geometry":{"coordinates":[4.8360545,52.3253309],"type":"Point"}},
{"type":"Feature","properties":{"addr:city":"Amstelveen","addr:housenumber":"17","addr:postcode":"1182AC","addr:street":"Jan Tooropplantsoen","name":"Manege Nieuw Amstelland","amenity":"riding_school","address":"Jan Tooropplantsoen 17, Amstelveen"},"geometry":{"coordinates":[4.8552175,52.3227717],"type":"Point"}},
{"type":"Feature","properties":{"amenity":"post_box"},"geometry":{"coordinates":[4.8914069,52.3621313],"type":"Point"}},
{"type":"Feature","properties":{"addr:city":"Amsterdam","addr:housenumber":"37A","addr:postcode":"1093EG","addr:street":"Linnaeusstraat","name":"Eeuwige Jeugd","amenity":"pub","address":"Linnaeusstraat 37A, Amsterdam"},"geometry":{"coordinates":[4.9247379,52.3614013],"type":"Point"}},
{"type":"Feature","properties":{"name":"Pata Negra","amenity":"restaurant"},"geometry":{"coordinates":[4.925171,52.3605996],"type":"Point"}},
{"type":"Feature","properties":{"addr:city":"Amsterdam","addr:housenumber":"29","addr:postcode":"1093 EE","addr:street":"Linnaeusstraat","name":"De Biertuin","amenity":"pub","address":"Linnaeusstraat 29, Amsterdam"},"geometry":{"coordinates":[4.92412,52.3622606],"type":"Point"}},
{"type":"Feature","properties":{"addr:housenumber":"31","addr:postcode":"1091KW","addr:street":"Maritzstraat","name":"Zizi Snackbar","amenity":"fast_food"},"geometry":{"coordinates":[4.9197977,52.3546056],"type":"Point"}},
{"type":"Feature","properties":{"addr:housenumber":"40","addr:postcode":"1092JZ","addr:street":"Krugerplein","name":"Café Oost","amenity":"pub"},"geometry":{"coordinates":[4.919777,52.3534384],"type":"Point"}},
{"type":"Feature","properties":{"addr:housenumber":"11","addr:street":"Krugerplein","name":"snackbar 't Snorretje","amenity":"fast_food"},"geometry":{"coordinates":[4.9203864,52.3544607],"type":"Point"}},
{"type":"Feature","properties":{"addr:housenumber":"22","addr:street":"Pretoriusstraat","name":"Meram","amenity":"restaurant"},"geometry":{"coordinates":[4.9255604,52.355989],"type":"Point"}},
{"type":"Feature","properties":{"amenity":"recycling"},"geometry":{"coordinates":[4.9192877,52.3554096],"type":"Point"}},
{"type":"Feature","properties":{"amenity":"recycling"},"geometry":{"coordinates":[4.9199795,52.3542873],"type":"Point"}},
{"type":"Feature","properties":{"amenity":"post_box"},"geometry":{"coordinates":[4.9202362,52.3545751],"type":"Point"}},
{"type":"Feature","properties":{"amenity":"post_box"},"geometry":{"coordinates":[4.9165583,52.351808],"type":"Point"}},
{"type":"Feature","properties":{"addr:housenumber":"27","addr:postcode":"1092BB","addr:street":"Beukenplein","name":"Café Maxwell","amenity":"restaurant"},"geometry":{"coordinates":[4.9186348,52.3567889],"type":"Point"}},
{"type":"Feature","properties":{"addr:housenumber":"10","addr:postcode":"1091KG","addr:street":"Beukenplein","name":"ThaiCoon","amenity":"restaurant"},"geometry":{"coordinates":[4.9177233,52.3571259],"type":"Point"}},
{"type":"Feature","properties":{"name":"Mojo","amenity":"restaurant"},"geometry":{"coordinates":[4.9280958,52.3548104],"type":"Point"}},
{"type":"Feature","properties":{"name":"La Vallade","amenity":"restaurant"},"geometry":{"coordinates":[4.9269471,52.35425],"type":"Point"}},
{"type":"Feature","properties":{"name":"Café-Restaurant Dauphine","amenity":"restaurant"},"geometry":{"coordinates":[4.9173053,52.3483698],"type":"Point"}},
{"type":"Feature","properties":{"addr:city":"Amsterdam","addr:housenumber":"25","addr:postcode":"1017PS","addr:street":"Leidseplein","name":"ABN AMRO","amenity":"bank","address":"Leidseplein 25, Amsterdam"},"geometry":{"coordinates":[4.8828676,52.3633695],"type":"Point"}},
{"type":"Feature","properties":{"addr:city":"Amsterdam","addr:housenumber":"219","addr:postcode":"1017PH","addr:street":"Lijnbaansgracht","name":"Bureau Lijnbaansgracht","amenity":"police","address":"Lijnbaansgracht 219, Amsterdam"},"geometry":{"coordinates":[4.8813721,52.3651785],"type":"Point"}},
{"type":"Feature","properties":{"amenity":"post_box"},"geometry":{"coordinates":[4.8834178,52.359617],"type":"Point"}},
{"type":"Feature","properties":{"amenity":"post_box"},"geometry":{"coordinates":[4.8840999,52.3649809],"type":"Point"}},
{"type":"Feature","properties":{"amenity":"post_box"},"geometry":{"coordinates":[4.8831083,52.3724285],"type":"Point"}},
{"type":"Feature","properties":{"amenity":"post_box"},"geometry":{"coordinates":[4.8845915,52.3760155],"type":"Point"}},
{"type":"Feature","properties":{"amenity":"post_box"},"geometry":{"coordinates":[4.8887678,52.3806354],"type":"Point"}},
{"type":"Feature","properties":{"addr:city":"Amsterdam","addr:housenumber":"150","addr:postcode":"1013EZ","addr:street":"Haarlemmerstraat","name":"Stach","shop":"deli","address":"Haarlemmerstraat 150, Amsterdam"},"geometry":{"coordinates":[4.8896472,52.3813825],"type":"Point"}},
{"type":"Feature","properties":{"addr:city":"Amsterdam","addr:housenumber":"3","addr:postcode":"1013ZM","addr:street":"Spaarndammerdijk","name":"Albert Heijn","shop":"supermarket","address":"Spaarndammerdijk 3, Amsterdam"},"geometry":{"coordinates":[4.8778865,52.3915532],"type":"Point"}},
{"type":"Feature","properties":{"amenity":"post_box"},"geometry":{"coordinates":[4.8815979,52.3911092],"type":"Point"}},
{"type":"Feature","properties":{"amenity":"post_box"},"geometry":{"coordinates":[4.8919214,52.3772829],"type":"Point"}},
{"type":"Feature","properties":{"addr:city":"Amsterdam","addr:housenumber":"8","addr:postcode":"1059 CM","addr:street":"Anthony Fokkerweg","name":"Hansa","amenity":"fuel","address":"Anthony Fokkerweg 8, Amsterdam"},"geometry":{"coordinates":[4.8420644,52.3440655],"type":"Point"}},
{"type":"Feature","properties":{"addr:city":"Amsterdam","addr:housenumber":"50","addr:postcode":"1059 CP","addr:street":"Anthony Fokkerweg","name":"Praxis Amsterdam West","shop":"doityourself","address":"Anthony Fokkerweg 50, Amsterdam"},"geometry":{"coordinates":[4.8424415,52.3417428],"type":"Point"}},
{"type":"Feature","properties":{"amenity":"parking"},"geometry":{"coordinates":[4.9675091,52.2948308],"type":"Point"}},
{"type":"Feature","properties":{"amenity":"parking"},"geometry":{"coordinates":[4.9661061,52.2945346],"type":"Point"}},
{"type":"Feature","properties":{"name":"DE Brede School","amenity":"school"},"geometry":{"coordinates":[4.9600053,52.3227785],"type":"Point"}},
{"type":"Feature","properties":{"amenity":"bus_parking"},"geometry":{"coordinates":[4.8854262,52.3589326],"type":"Point"}},
{"type":"Feature","properties":{"amenity":"fuel"},"geometry":{"coordinates":[4.8707229,52.3827964],"type":"Point"}},
{"type":"Feature","properties":{"name":"Shell van Slingelandtstraat","amenity":"fuel"},"geometry":{"coordinates":[4.8647585,52.384094],"type":"Point"}},
{"type":"Feature","properties":{"name":"MediaCollege Amsterdam","amenity":"school"},"geometry":{"coordinates":[4.8562558,52.390871],"type":"Point"}},
{"type":"Feature","properties":{"amenity":"recycling"},"geometry":{"coordinates":[4.8839348,52.3556006],"type":"Point"}},
{"type":"Feature","properties":{"addr:city":"Amsterdam","addr:housenumber":"39","addr:postcode":"1071 XA","addr:street":"Ruysdaelstraat","name":"Oud-Katholieke Kerk","amenity":"place_of_worship","address":"Ruysdaelstraat 39, Amsterdam"},"geometry":{"coordinates":[4.8845731,52.3541036],"type":"Point"}},
{"type":"Feature","properties":{"amenity":"post_box"},"geometry":{"coordinates":[4.8821731,52.3551029],"type":"Point"}},
{"type":"Feature","properties":{"amenity":"post_box"},"geometry":{"coordinates":[4.8841892,52.3567084],"type":"Point"}},
{"type":"Feature","properties":{"amenity":"post_box"},"geometry":{"coordinates":[4.857567,52.3646458],"type":"Point"}},
{"type":"Feature","properties":{"amenity":"post_box"},"geometry":{"coordinates":[4.8519733,52.3642051],"type":"Point"}},
{"type":"Feature","properties":{"amenity":"recycling"},"geometry":{"coordinates":[4.8528984,52.3643364],"type":"Point"}},
{"type":"Feature","properties":{"amenity":"recycling"},"geometry":{"coordinates":[4.850648,52.3641303],"type":"Point"}},
{"type":"Feature","properties":{"amenity":"recycling"},"geometry":{"coordinates":[4.8490154,52.3684088],"type":"Point"}},
{"type":"Feature","properties":{"amenity":"recycling"},"geometry":{"coordinates":[4.8404595,52.3658871],"type":"Point"}},
{"type":"Feature","properties":{"amenity":"recycling"},"geometry":{"coordinates":[4.83828,52.3640181],"type":"Point"}},
{"type":"Feature","properties":{"addr:city":"Amsterdam","addr:housenumber":"16","addr:postcode":"1062AC","addr:street":"August Allebéplein","name":"ABN AMRO","amenity":"atm","address":"August Allebéplein 16, Amsterdam"},"geometry":{"coordinates":[4.837399,52.3635658],"type":"Point"}},
{"type":"Feature","properties":{"amenity":"recycling"},"geometry":{"coordinates":[4.8403204,52.3648686],"type":"Point"}},
{"type":"Feature","properties":{"amenity":"recycling"},"geometry":{"coordinates":[4.873379,52.3674316],"type":"Point"}},
{"type":"Feature","properties":{"amenity":"post_box"},"geometry":{"coordinates":[4.8778156,52.3686967],"type":"Point"}},
{"type":"Feature","properties":{"amenity":"recycling"},"geometry":{"coordinates":[4.8799796,52.3665107],"type":"Point"}},
{"type":"Feature","properties":{"amenity":"post_box"},"geometry":{"coordinates":[4.8790964,52.3666171],"type":"Point"}},
{"type":"Feature","properties":{"addr:city":"Amsterdam","addr:housenumber":"68","addr:postcode":"1015 TL","addr:street":"Bloemgracht","name":"Bike City","amenity":"bicycle_rental","address":"Bloemgracht 68, Amsterdam"},"geometry":{"coordinates":[4.8813405,52.3750358],"type":"Point"}},
{"type":"Feature","properties":{"amenity":"recycling"},"geometry":{"coordinates":[4.8670292,52.3744744],"type":"Point"}},
{"type":"Feature","properties":{"amenity":"post_box"},"geometry":{"coordinates":[4.8671258,52.3744818],"type":"Point"}},
{"type":"Feature","properties":{"amenity":"recycling"},"geometry":{"coordinates":[4.8606166,52.3748292],"type":"Point"}},
{"type":"Feature","properties":{"amenity":"post_box"},"geometry":{"coordinates":[4.8608127,52.3747142],"type":"Point"}},
{"type":"Feature","properties":{"amenity":"recycling"},"geometry":{"coordinates":[4.8557413,52.3887239],"type":"Point"}},
{"type":"Feature","properties":{"amenity":"post_box"},"geometry":{"coordinates":[4.8963424,52.3623804],"type":"Point"}},
{"type":"Feature","properties":{"amenity":"recycling"},"geometry":{"coordinates":[4.8359672,52.3543565],"type":"Point"}},
{"type":"Feature","properties":{"amenity":"recycling"},"geometry":{"coordinates":[4.8360313,52.3528955],"type":"Point"}},
{"type":"Feature","properties":{"amenity":"recycling"},"geometry":{"coordinates":[4.8371363,52.3550432],"type":"Point"}},
{"type":"Feature","properties":{"amenity":"recycling"},"geometry":{"coordinates":[4.8356934,52.3555134],"type":"Point"}},
{"type":"Feature","properties":{"amenity":"post_box"},"geometry":{"coordinates":[4.8493341,52.351475],"type":"Point"}},
{"type":"Feature","properties":{"amenity":"telephone"},"geometry":{"coordinates":[4.8493185,52.3510884],"type":"Point"}},
{"type":"Feature","properties":{"amenity":"atm"},"geometry":{"coordinates":[4.8519697,52.3511694],"type":"Point"}},
{"type":"Feature","properties":{"amenity":"post_box"},"geometry":{"coordinates":[4.8569736,52.3499151],"type":"Point"}},
{"type":"Feature","properties":{"amenity":"recycling"},"geometry":{"coordinates":[4.8609736,52.3506102],"type":"Point"}},
{"type":"Feature","properties":{"name":"Sing Sing","amenity":"restaurant"},"geometry":{"coordinates":[4.8633086,52.3511404],"type":"Point"}},
{"type":"Feature","properties":{"amenity":"post_box"},"geometry":{"coordinates":[4.8682174,52.3525642],"type":"Point"}},
{"type":"Feature","properties":{"addr:city":"Amsterdam","addr:housenumber":"102-106","addr:postcode":"1071 BC","addr:street":"Van Baerlestraat","name":"Rabobank","amenity":"bank","address":"Van Baerlestraat 102-106, Amsterdam"},"geometry":{"coordinates":[4.880033,52.3556634],"type":"Point"}},
{"type":"Feature","properties":{"amenity":"post_box"},"geometry":{"coordinates":[4.8926378,52.3640333],"type":"Point"}},
{"type":"Feature","properties":{"addr:city":"Amsterdam","addr:housenumber":"15","addr:postcode":"1017HD","addr:street":"Vijzelstraat","name":"Pathé de Munt","amenity":"cinema","address":"Vijzelstraat 15, Amsterdam"},"geometry":{"coordinates":[4.8934706,52.3664519],"type":"Point"}},
{"type":"Feature","properties":{"addr:city":"Amsterdam","addr:street":"Amstel","name":"Koninklijk Theater Carré","amenity":"theatre"},"geometry":{"coordinates":[4.9039264,52.3623349],"type":"Point"}},
{"type":"Feature","properties":{"name":"P1","amenity":"parking"},"geometry":{"coordinates":[4.8236168,52.3488318],"type":"Point"}},
{"type":"Feature","properties":{"addr:city":"Amsterdam","addr:housenumber":"267","addr:postcode":"1017XJ","addr:street":"Weteringschans","name":"Café Kale","amenity":"pub","address":"Weteringschans 267, Amsterdam"},"geometry":{"coordinates":[4.8973945,52.3594947],"type":"Point"}},
{"type":"Feature","properties":{"amenity":"bicycle_parking"},"geometry":{"coordinates":[4.9131528,52.3424544],"type":"Point"}},
{"type":"Feature","properties":{"amenity":"parking"},"geometry":{"coordinates":[4.9135735,52.3424708],"type":"Point"}},
{"type":"Feature","properties":{"amenity":"parking"},"geometry":{"coordinates":[4.89684,52.3439894],"type":"Point"}},
{"type":"Feature","properties":{"amenity":"post_box"},"geometry":{"coordinates":[4.8915209,52.34955],"type":"Point"}},
{"type":"Feature","properties":{"name":"l'Affiche","amenity":"pub"},"geometry":{"coordinates":[4.8747722,52.3665772],"type":"Point"}},
{"type":"Feature","properties":{"name":"Esso","amenity":"fuel"},"geometry":{"coordinates":[4.9247972,52.3870279],"type":"Point"}},
{"type":"Feature","properties":{"amenity":"college"},"geometry":{"coordinates":[4.9256779,52.3891543],"type":"Point"}},
{"type":"Feature","properties":{"shop":"florist"},"geometry":{"coordinates":[4.8912738,52.3509061],"type":"Point"}},
{"type":"Feature","properties":{"addr:city":"Amsterdam","addr:housenumber":"11","addr:postcode":"1072 JJ","addr:street":"Cornelis Troostplein","name":"Albert Heijn","shop":"supermarket","address":"Cornelis Troostplein 11, Amsterdam"},"geometry":{"coordinates":[4.892026,52.3510051],"type":"Point"}},
{"type":"Feature","properties":{"amenity":"recycling"},"geometry":{"coordinates":[4.9093122,52.3551109],"type":"Point"}},
{"type":"Feature","properties":{"amenity":"recycling"},"geometry":{"coordinates":[4.9100245,52.3560805],"type":"Point"}},
{"type":"Feature","properties":{"name":"4e montessorischool","amenity":"school"},"geometry":{"coordinates":[4.9084934,52.3547479],"type":"Point"}},
{"type":"Feature","properties":{"amenity":"recycling"},"geometry":{"coordinates":[4.9128434,52.3488647],"type":"Point"}},
{"type":"Feature","properties":{"amenity":"post_box"},"geometry":{"coordinates":[4.9084583,52.3407013],"type":"Point"}},
{"type":"Feature","properties":{"amenity":"recycling"},"geometry":{"coordinates":[4.907187,52.341146],"type":"Point"}},
{"type":"Feature","properties":{"amenity":"recycling"},"geometry":{"coordinates":[4.9064867,52.3422848],"type":"Point"}},
{"type":"Feature","properties":{"amenity":"recycling"},"geometry":{"coordinates":[4.9070017,52.3423005],"type":"Point"}},
{"type":"Feature","properties":{"amenity":"telephone"},"geometry":{"coordinates":[4.9067864,52.3429173],"type":"Point"}},
{"type":"Feature","properties":{"addr:city":"Amsterdam","addr:housenumber":"117","addr:postcode":"1079HB","addr:street":"Rijnstraat","name":"ABN AMRO","amenity":"atm","address":"Rijnstraat 117, Amsterdam"},"geometry":{"coordinates":[4.9064974,52.3438349],"type":"Point"}},
{"type":"Feature","properties":{"addr:city":"Amsterdam","addr:housenumber":"130","addr:postcode":"1079 HP","addr:street":"Rijnstraat","name":"Rabobank","amenity":"atm","address":"Rijnstraat 130, Amsterdam"},"geometry":{"coordinates":[4.905946,52.3437215],"type":"Point"}},
{"type":"Feature","properties":{"amenity":"recycling"},"geometry":{"coordinates":[4.9061863,52.3444661],"type":"Point"}},
{"type":"Feature","properties":{"amenity":"recycling"},"geometry":{"coordinates":[4.9049073,52.3474312],"type":"Point"}},
{"type":"Feature","properties":{"amenity":"recycling"},"geometry":{"coordinates":[4.9047315,52.3478679],"type":"Point"}},
{"type":"Feature","properties":{"amenity":"post_box"},"geometry":{"coordinates":[4.9045717,52.3485396],"type":"Point"}},
{"type":"Feature","properties":{"addr:city":"Amsterdam","addr:housenumber":"217-219","addr:postcode":"1074AP","addr:street":"Van Woustraat","name":"ABN AMRO","amenity":"atm","address":"Van Woustraat 217-219, Amsterdam"},"geometry":{"coordinates":[4.9040154,52.3501468],"type":"Point"}},
{"type":"Feature","properties":{"amenity":"recycling"},"geometry":{"coordinates":[4.9037344,52.3504315],"type":"Point"}},
{"type":"Feature","properties":{"amenity":"post_box"},"geometry":{"coordinates":[4.9034491,52.3508084],"type":"Point"}},
{"type":"Feature","properties":{"addr:city":"Amsterdam","addr:housenumber":"195-197","addr:postcode":"1074AN","addr:street":"Van Woustraat","name":"ING","amenity":"atm","address":"Van Woustraat 195-197, Amsterdam"},"geometry":{"coordinates":[4.9034914,52.3511152],"type":"Point"}},
{"type":"Feature","properties":{"amenity":"post_box"},"geometry":{"coordinates":[4.9217787,52.3862097],"type":"Point"}},
{"type":"Feature","properties":{"amenity":"post_box"},"geometry":{"coordinates":[4.8844668,52.3670266],"type":"Point"}},
{"type":"Feature","properties":{"amenity":"post_box"},"geometry":{"coordinates":[4.9099423,52.3831039],"type":"Point"}},
{"type":"Feature","properties":{"amenity":"parking"},"geometry":{"coordinates":[4.9206202,52.3331976],"type":"Point"}},
{"type":"Feature","properties":{"amenity":"post_box"},"geometry":{"coordinates":[4.9192044,52.3327163],"type":"Point"}},
{"type":"Feature","properties":{"amenity":"post_box"},"geometry":{"coordinates":[4.922525,52.3345667],"type":"Point"}},
{"type":"Feature","properties":{"amenity":"recycling"},"geometry":{"coordinates":[4.9149791,52.3530689],"type":"Point"}},
{"type":"Feature","properties":{"amenity":"parking"},"geometry":{"coordinates":[4.9089058,52.3578602],"type":"Point"}},
{"type":"Feature","properties":{"addr:city":"Amsterdam","addr:housenumber":"338","addr:postcode":"1072 GN","addr:street":"Ceintuurbaan","name":"Rialto","amenity":"cinema","address":"Ceintuurbaan 338, Amsterdam"},"geometry":{"coordinates":[4.8939884,52.3529636],"type":"Point"}},
{"type":"Feature","properties":{"addr:city":"Amsterdam","addr:housenumber":"180","addr:postcode":"1072 LV","addr:street":"Ferdinand Bolstraat","name":"Gambrinus","amenity":"pub","address":"Ferdinand Bolstraat 180, Amsterdam"},"geometry":{"coordinates":[4.8912207,52.3512974],"type":"Point"}},
{"type":"Feature","properties":{"addr:housenumber":"51","addr:postcode":"1072 HN","addr:street":"Dusartstraat","name":"Fonk","amenity":"pub"},"geometry":{"coordinates":[4.8894806,52.3512963],"type":"Point"}},
{"type":"Feature","properties":{"addr:city":"Amsterdam","addr:housenumber":"7","addr:postcode":"1073AR","addr:street":"van der Helstplein","name":"cafe BUHRS","amenity":"pub","address":"van der Helstplein 7, Amsterdam"},"geometry":{"coordinates":[4.8950989,52.3518527],"type":"Point"}},
{"type":"Feature","properties":{"addr:city":"Amsterdam","addr:housenumber":"178","addr:postcode":"1072 LT","addr:street":"Ferdinand Bolstraat","name":"Volt","amenity":"restaurant","address":"Ferdinand Bolstraat 178, Amsterdam"},"geometry":{"coordinates":[4.8911767,52.3514961],"type":"Point"}},
{"type":"Feature","properties":{"addr:city":"Amsterdam","addr:housenumber":"93","addr:postcode":"1072 LD","addr:street":"Ferdinand Bolstraat","name":"HEMA","shop":"department_store","address":"Ferdinand Bolstraat 93, Amsterdam"},"geometry":{"coordinates":[4.8910916,52.3536647],"type":"Point"}},
{"type":"Feature","properties":{"name":"Dusart","amenity":"pub"},"geometry":{"coordinates":[4.8895103,52.3511266],"type":"Point"}},
{"type":"Feature","properties":{"name":"Kingfisher","amenity":"pub"},"geometry":{"coordinates":[4.8904847,52.3566892],"type":"Point"}},
{"type":"Feature","properties":{"addr:city":"Amsterdam","addr:housenumber":"11","addr:postcode":"1079 EK","addr:street":"Lekstraat","name":"de Plek","amenity":"pub","address":"Lekstraat 11, Amsterdam"},"geometry":{"coordinates":[4.9082519,52.3451944],"type":"Point"}},
{"type":"Feature","properties":{"addr:city":"Amsterdam","addr:housenumber":"87","addr:postcode":"1079 GZ","addr:street":"Rijnstraat","name":"Kong Kha","amenity":"restaurant","address":"Rijnstraat 87, Amsterdam"},"geometry":{"coordinates":[4.9058841,52.3452521],"type":"Point"}},
{"type":"Feature","properties":{"addr:housenumber":"101","addr:postcode":"1079HA","addr:street":"Rijnstraat","name":"I Trulli","amenity":"restaurant"},"geometry":{"coordinates":[4.9061298,52.3445658],"type":"Point"}},
{"type":"Feature","properties":{"addr:city":"Amsterdam","addr:housenumber":"95-99","addr:postcode":"1072 EX","addr:street":"Ceintuurbaan","name":"ING","amenity":"atm","address":"Ceintuurbaan 95-99, Amsterdam"},"geometry":{"coordinates":[4.891701,52.3530083],"type":"Point"}},
{"type":"Feature","properties":{"addr:city":"Amsterdam","addr:housenumber":"85-87","addr:postcode":"1072EW","addr:street":"Ceintuurbaan","name":"ABN AMRO","amenity":"atm","address":"Ceintuurbaan 85-87, Amsterdam"},"geometry":{"coordinates":[4.8906143,52.3528586],"type":"Point"}},
{"type":"Feature","properties":{"shop":"dry_cleaning"},"geometry":{"coordinates":[4.8892597,52.3519376],"type":"Point"}},
{"type":"Feature","properties":{"addr:city":"Amsterdam","addr:housenumber":"14a","addr:postcode":"1079 TX","addr:street":"Trompenburgstraat","name":"Praxis Amsterdam Zuid","shop":"doityourself","address":"Trompenburgstraat 14a, Amsterdam"},"geometry":{"coordinates":[4.9090488,52.3444071],"type":"Point"}},
{"type":"Feature","properties":{"addr:city":"Amsterdam","addr:housenumber":"148A","addr:postcode":"1078 AW","addr:street":"Amstelkade","name":"Pizzeria San Marco","amenity":"restaurant","address":"Amstelkade 148A, Amsterdam"},"geometry":{"coordinates":[4.8909926,52.3481204],"type":"Point"}},
{"type":"Feature","properties":{"addr:city":"Amsterdam","addr:housenumber":"4","addr:postcode":"1072JK","addr:street":"Cornelis Troostplein","name":"Le Pain Quotidien","amenity":"cafe","address":"Cornelis Troostplein 4, Amsterdam"},"geometry":{"coordinates":[4.8912435,52.3511182],"type":"Point"}},
{"type":"Feature","properties":{"addr:city":"Amsterdam","addr:housenumber":"2","addr:postcode":"1078 GK","addr:street":"Scheldestraat","name":"Avondwinkel De Schelde","shop":"convenience","address":"Scheldestraat 2, Amsterdam"},"geometry":{"coordinates":[4.8909411,52.3478813],"type":"Point"}},
{"type":"Feature","properties":{"addr:city":"Amsterdam","addr:housenumber":"11","addr:postcode":"1078 GD","addr:street":"Scheldestraat","name":"Zijwind fietsen","shop":"bicycle","address":"Scheldestraat 11, Amsterdam"},"geometry":{"coordinates":[4.8915576,52.3477947],"type":"Point"}},
{"type":"Feature","properties":{"name":"Dianto coiffure","shop":"hairdresser"},"geometry":{"coordinates":[4.8979641,52.346485],"type":"Point"}},
{"type":"Feature","properties":{"addr:city":"Amsterdam","addr:housenumber":"61","addr:postcode":"1079 GW","addr:street":"Rijnstraat","name":"Bartels","shop":"bakery","address":"Rijnstraat 61, Amsterdam"},"geometry":{"coordinates":[4.9056489,52.3458894],"type":"Point"}},
{"type":"Feature","properties":{"addr:city":"Amsterdam","addr:housenumber":"67","addr:postcode":"1079 GW","addr:street":"Rijnstraat","name":"Kong Ming","amenity":"restaurant","address":"Rijnstraat 67, Amsterdam"},"geometry":{"coordinates":[4.9056866,52.3457197],"type":"Point"}},
{"type":"Feature","properties":{"name":"Bertram Brood","shop":"bakery"},"geometry":{"coordinates":[4.9054191,52.3450671],"type":"Point"}},
{"type":"Feature","properties":{"name":"Dirk van den Broek","shop":"supermarket"},"geometry":{"coordinates":[4.9046879,52.34678],"type":"Point"}},
{"type":"Feature","properties":{"name":"Papa","amenity":"restaurant"},"geometry":{"coordinates":[4.9047332,52.3482353],"type":"Point"}},
{"type":"Feature","properties":{"name":"Phukradung","amenity":"restaurant"},"geometry":{"coordinates":[4.9034904,52.3514674],"type":"Point"}},
{"type":"Feature","properties":{"name":"Frango","amenity":"restaurant"},"geometry":{"coordinates":[4.9027669,52.353296],"type":"Point"}},
{"type":"Feature","properties":{"name":"De Sloterplas","shop":"video"},"geometry":{"coordinates":[4.9018801,52.3537294],"type":"Point"}},
{"type":"Feature","properties":{"name":"Ouke Baas","amenity":"car_rental"},"geometry":{"coordinates":[4.9022672,52.3538204],"type":"Point"}},
{"type":"Feature","properties":{"addr:city":"Amsterdam","addr:housenumber":"81-83","addr:postcode":"1074 AD","addr:street":"Van Woustraat","name":"Etos","shop":"chemist","address":"Van Woustraat 81-83, Amsterdam"},"geometry":{"coordinates":[4.9012563,52.3550436],"type":"Point"}},
{"type":"Feature","properties":{"addr:city":"Amsterdam","addr:housenumber":"90","addr:postcode":"1073LP","addr:street":"Van Woustraat","name":"ING","amenity":"atm","address":"Van Woustraat 90, Amsterdam"},"geometry":{"coordinates":[4.9007184,52.354809],"type":"Point"}},
{"type":"Feature","properties":{"name":"Sarphaat","amenity":"pub"},"geometry":{"coordinates":[4.8992429,52.3543825],"type":"Point"}},
{"type":"Feature","properties":{"name":"Puyck","amenity":"restaurant"},"geometry":{"coordinates":[4.8937863,52.3532883],"type":"Point"}},
{"type":"Feature","properties":{"name":"Stigter","amenity":"pub"},"geometry":{"coordinates":[4.8941377,52.3529885],"type":"Point"}},
{"type":"Feature","properties":{"addr:city":"Amsterdam","addr:housenumber":"119","addr:postcode":"1072 EZ","addr:street":"Ceintuurbaan","name":"Kam Kee","amenity":"restaurant","address":"Ceintuurbaan 119, Amsterdam"},"geometry":{"coordinates":[4.892503,52.3531295],"type":"Point"}},
{"type":"Feature","properties":{"addr:city":"Amsterdam","addr:housenumber":"278","addr:postcode":"1072 GJ","addr:street":"Ceintuurbaan","name":"Ron Verboom","shop":"bakery","address":"Ceintuurbaan 278, Amsterdam"},"geometry":{"coordinates":[4.891034,52.3525838],"type":"Point"}},
{"type":"Feature","properties":{"name":"Bax","amenity":"pub"},"geometry":{"coordinates":[4.8679756,52.3656085],"type":"Point"}},
{"type":"Feature","properties":{"addr:housenumber":"59-72","addr:street":"Prins Hendrikkade","name":"Vermeer","amenity":"restaurant"},"geometry":{"coordinates":[4.9004724,52.3764859],"type":"Point"}},
{"type":"Feature","properties":{"addr:city":"Amsterdam","addr:housenumber":"1","addr:postcode":"1012AN","addr:street":"Zeedijk","name":"In't Aepjen","amenity":"pub","address":"Zeedijk 1, Amsterdam"},"geometry":{"coordinates":[4.9001456,52.3763121],"type":"Point"}},
{"type":"Feature","properties":{"addr:city":"Amsterdam","addr:housenumber":"4","addr:postcode":"1012AX","addr:street":"Zeedijk","name":"Skek","amenity":"pub","address":"Zeedijk 4, Amsterdam"},"geometry":{"coordinates":[4.9001777,52.3760606],"type":"Point"}},
{"type":"Feature","properties":{"addr:city":"Amsterdam","addr:housenumber":"21","addr:postcode":"1012AP","addr:street":"Zeedijk","name":"Geheim van de Smidt","amenity":"pub","address":"Zeedijk 21, Amsterdam"},"geometry":{"coordinates":[4.9007535,52.3757843],"type":"Point"}},
{"type":"Feature","properties":{"name":"Park Plaza Brasserie","amenity":"restaurant"},"geometry":{"coordinates":[4.8979096,52.3770851],"type":"Point"}},
{"type":"Feature","properties":{"amenity":"bureau_de_change"},"geometry":{"coordinates":[4.8974711,52.3767591],"type":"Point"}},
{"type":"Feature","properties":{"amenity":"bureau_de_change"},"geometry":{"coordinates":[4.8972971,52.3766225],"type":"Point"}},
{"type":"Feature","properties":{"amenity":"bureau_de_change"},"geometry":{"coordinates":[4.8966906,52.3761622],"type":"Point"}},
{"type":"Feature","properties":{"name":"Bravi Ragazzi","amenity":"restaurant"},"geometry":{"coordinates":[4.8963754,52.3759544],"type":"Point"}},
{"type":"Feature","properties":{"addr:housenumber":"50","addr:street":"Damrak","name":"Stock","amenity":"cafe"},"geometry":{"coordinates":[4.8956474,52.3753858],"type":"Point"}},
{"type":"Feature","properties":{"name":"Pott","amenity":"bureau_de_change"},"geometry":{"coordinates":[4.8933733,52.3736063],"type":"Point"}},
{"type":"Feature","properties":{"addr:city":"Amsterdam","addr:housenumber":"7","addr:postcode":"1012 AB","addr:street":"Stationsplein","name":"Albert Heijn to go","shop":"convenience","address":"Stationsplein 7, Amsterdam"},"geometry":{"coordinates":[4.9013776,52.37807],"type":"Point"}},
{"type":"Feature","properties":{"addr:city":"Amsterdam","addr:housenumber":"2","addr:postcode":"1012NP","addr:street":"Dam","name":"ABN AMRO","amenity":"bank","address":"Dam 2, Amsterdam"},"geometry":{"coordinates":[4.8930266,52.3733616],"type":"Point"}},
{"type":"Feature","properties":{"addr:city":"Amsterdam","addr:housenumber":"66","addr:postcode":"1012LM","addr:street":"Damrak","amenity":"atm","address":"Damrak 66, Amsterdam"},"geometry":{"coordinates":[4.894309,52.3742985],"type":"Point"}},
{"type":"Feature","properties":{"name":"Players","amenity":"pub"},"geometry":{"coordinates":[4.8955245,52.3737173],"type":"Point"}},
{"type":"Feature","properties":{"addr:city":"Amsterdam","addr:housenumber":"141","addr:postcode":"1012JB","addr:street":"Warmoesstraat","name":"Condomerie","shop":"erotic","address":"Warmoesstraat 141, Amsterdam"},"geometry":{"coordinates":[4.8958719,52.373679],"type":"Point"}},
{"type":"Feature","properties":{"addr:city":"Amsterdam","addr:housenumber":"117","addr:street":"Warmoesstraat","name":"Durty Nelly's","amenity":"pub","address":"Warmoesstraat 117, Amsterdam"},"geometry":{"coordinates":[4.8965373,52.3741125],"type":"Point"}},
{"type":"Feature","properties":{"addr:city":"Amsterdam","addr:housenumber":"78","addr:postcode":"1093GH","addr:street":"Eerste van Swindenstraat","name":"Rabobank","amenity":"atm","address":"Eerste van Swindenstraat 78, Amsterdam"},"geometry":{"coordinates":[4.9285077,52.3627533],"type":"Point"}},
{"type":"Feature","properties":{"name":"Irish Pub Slainte","amenity":"pub"},"geometry":{"coordinates":[4.8973185,52.3746948],"type":"Point"}},
{"type":"Feature","properties":{"amenity":"atm"},"geometry":{"coordinates":[4.9285221,52.3621936],"type":"Point"}},
{"type":"Feature","properties":{"name":"Sweet Asia","amenity":"restaurant"},"geometry":{"coordinates":[4.9289933,52.3631525],"type":"Point"}},
{"type":"Feature","properties":{"addr:street":"Oosterdokskade","name":"OBA Oosterdok","amenity":"library"},"geometry":{"coordinates":[4.9081983,52.3762463],"type":"Point"}},
{"type":"Feature","properties":{"name":"De Groene Olifant","amenity":"pub"},"geometry":{"coordinates":[4.9200038,52.3640109],"type":"Point"}},
{"type":"Feature","properties":{"addr:city":"Amsterdam","addr:housenumber":"123","addr:postcode":"1011EN","addr:street":"Geldersekade","name":"Cafe Stevens","amenity":"pub","address":"Geldersekade 123, Amsterdam"},"geometry":{"coordinates":[4.9011235,52.3728379],"type":"Point"}},
{"type":"Feature","properties":{"name":"Nam Kee","amenity":"restaurant"},"geometry":{"coordinates":[4.9011882,52.3729769],"type":"Point"}},
{"type":"Feature","properties":{"name":"Cotton Club","amenity":"pub"},"geometry":{"coordinates":[4.9010196,52.3726299],"type":"Point"}},
{"type":"Feature","properties":{"name":"Bern","amenity":"pub"},"geometry":{"coordinates":[4.9009348,52.3724859],"type":"Point"}},
{"type":"Feature","properties":{"addr:city":"Amsterdam","addr:housenumber":"15","addr:postcode":"1012CR","addr:street":"Nieuwmarkt","name":"Café Fonteyn","amenity":"pub","address":"Nieuwmarkt 15, Amsterdam"},"geometry":{"coordinates":[4.9008776,52.3723885],"type":"Point"}},
{"type":"Feature","properties":{"addr:housenumber":"27","addr:street":"Nieuwmarkt","name":"Oriental","shop":"supermarket"},"geometry":{"coordinates":[4.9001954,52.3719917],"type":"Point"}},
{"type":"Feature","properties":{"addr:city":"Amsterdam","addr:housenumber":"16","addr:postcode":"1012 CT","addr:street":"Kloveniersburgwal","name":"IJssalon Tofani","amenity":"fast_food","address":"Kloveniersburgwal 16, Amsterdam"},"geometry":{"coordinates":[4.8990709,52.3718562],"type":"Point"}},
{"type":"Feature","properties":{"addr:city":"Amsterdam","addr:housenumber":"14","addr:postcode":"1012 CT","addr:street":"Kloveniersburgwal","name":"Song Kwae","amenity":"restaurant","address":"Kloveniersburgwal 14, Amsterdam"},"geometry":{"coordinates":[4.8991163,52.371915],"type":"Point"}},
{"type":"Feature","properties":{"addr:city":"Amsterdam","addr:street":"Kloveniersburgwal","name":"Temple Bar","amenity":"pub"},"geometry":{"coordinates":[4.8993518,52.3721371],"type":"Point"}},
{"type":"Feature","properties":{"addr:city":"Amsterdam","addr:housenumber":"6-8","addr:postcode":"1012 CT","addr:street":"Kloveniersburgwal","name":"De Bekeerde Suster","amenity":"pub","address":"Kloveniersburgwal 6-8, Amsterdam"},"geometry":{"coordinates":[4.8992627,52.3720321],"type":"Point"}},
{"type":"Feature","properties":{"name":"Café 't Loosje","amenity":"pub"},"geometry":{"coordinates":[4.8995,52.3723799],"type":"Point"}},
{"type":"Feature","properties":{"addr:city":"Amsterdam","addr:street":"Nieuwmarkt","name":"Café Del Mondo","amenity":"pub"},"geometry":{"coordinates":[4.8995457,52.3724585],"type":"Point"}},
{"type":"Feature","properties":{"addr:city":"Amsterdam","addr:housenumber":"26","addr:postcode":"1012CS","addr:street":"Nieuwmarkt","name":"Down Town Burger","amenity":"fast_food","address":"Nieuwmarkt 26, Amsterdam"},"geometry":{"coordinates":[4.8995992,52.3724981],"type":"Point"}},
{"type":"Feature","properties":{"name":"Toko Joyce","amenity":"fast_food","shop":"beverages"},"geometry":{"coordinates":[4.8994598,52.3723193],"type":"Point"}},
{"type":"Feature","properties":{"name":"Café Poco Loco","amenity":"pub"},"geometry":{"coordinates":[4.8996205,52.3725409],"type":"Point"}},
{"type":"Feature","properties":{"addr:city":"Amsterdam","addr:housenumber":"20","addr:postcode":"1012CR","addr:street":"Nieuwmarkt","name":"Rabobank","amenity":"atm","address":"Nieuwmarkt 20, Amsterdam"},"geometry":{"coordinates":[4.8996866,52.3726432],"type":"Point"}},
{"type":"Feature","properties":{"addr:housenumber":"16","addr:postcode":"1012CR","addr:street":"Nieuwmarkt","name":"Geweaght Café","amenity":"pub"},"geometry":{"coordinates":[4.8997837,52.3727127],"type":"Point"}},
{"type":"Feature","properties":{"name":"Coffeeshop Rock-it","amenity":"cafe"},"geometry":{"coordinates":[4.8998649,52.3728646],"type":"Point"}},
{"type":"Feature","properties":{"name":"Chao Phraya","amenity":"restaurant"},"geometry":{"coordinates":[4.8998889,52.3729121],"type":"Point"}},
{"type":"Feature","properties":{"name":"Alexander","shop":"convenience"},"geometry":{"coordinates":[4.8999239,52.3729579],"type":"Point"}},
{"type":"Feature","properties":{"name":"A Fusion","amenity":"restaurant"},"geometry":{"coordinates":[4.9001515,52.3732425],"type":"Point"}},
{"type":"Feature","properties":{"addr:housenumber":"111-113","addr:postcode":"1012 AV","addr:street":"Zeedijk","name":"Nam Kee","amenity":"restaurant"},"geometry":{"coordinates":[4.9003096,52.3737013],"type":"Point"}},
{"type":"Feature","properties":{"name":"Zeilmakerij Koster","shop":"outdoor"},"geometry":{"coordinates":[4.9017417,52.3741288],"type":"Point"}},
{"type":"Feature","properties":{"name":"Ristorante Italiano Piccolo Mondo","amenity":"restaurant"},"geometry":{"coordinates":[4.9017078,52.3740711],"type":"Point"}},
{"type":"Feature","properties":{"addr:city":"Amsterdam","addr:housenumber":"78","addr:postcode":"1012CR","addr:street":"Zeedijk","name":"Wing Kee","amenity":"restaurant","address":"Zeedijk 78, Amsterdam"},"geometry":{"coordinates":[4.9004584,52.3744999],"type":"Point"}},
{"type":"Feature","properties":{"addr:housenumber":"82","addr:street":"Geldersekade","name":"Toko Dun Yong","shop":"supermarket"},"geometry":{"coordinates":[4.9008902,52.3743731],"type":"Point"}},
{"type":"Feature","properties":{"amenity":"taxi"},"geometry":{"coordinates":[4.9007794,52.3731577],"type":"Point"}},
{"type":"Feature","properties":{"addr:city":"Amsterdam","addr:housenumber":"7","addr:postcode":"1012CR","addr:street":"Nieuwmarkt","name":"Rabobank","amenity":"atm","address":"Nieuwmarkt 7, Amsterdam"},"geometry":{"coordinates":[4.9010043,52.372576],"type":"Point"}},
{"type":"Feature","properties":{"name":"Casa Rosso","amenity":"nightclub"},"geometry":{"coordinates":[4.8977959,52.3726552],"type":"Point"}},
{"type":"Feature","properties":{"name":"Total Flierbos","amenity":"fuel"},"geometry":{"coordinates":[4.9640907,52.3156188],"type":"Point"}},
{"type":"Feature","properties":{"name":"Total Ganzenhoef","amenity":"fuel"},"geometry":{"coordinates":[4.9630134,52.3176029],"type":"Point"}},
{"type":"Feature","properties":{"name":"Tours & Tickets","amenity":"ice_cream","shop":"ticket"},"geometry":{"coordinates":[4.8926487,52.372343],"type":"Point"}},
{"type":"Feature","properties":{"addr:city":"Amsterdam","addr:housenumber":"108-110","addr:postcode":"1012LA","addr:street":"Rokin","name":"ING","amenity":"atm","address":"Rokin 108-110, Amsterdam"},"geometry":{"coordinates":[4.8919207,52.369144],"type":"Point"}},
{"type":"Feature","properties":{"addr:city":"Amsterdam","addr:housenumber":"11","addr:postcode":"1017CT","addr:street":"Rembrandtplein","name":"Escape","amenity":"nightclub","address":"Rembrandtplein 11, Amsterdam"},"geometry":{"coordinates":[4.8963193,52.3664188],"type":"Point"}},
{"type":"Feature","properties":{"addr:city":"Amsterdam","addr:housenumber":"22A","addr:postcode":"1017CN","addr:street":"Reguliersbreestraat","name":"Albert Heijn to go","shop":"convenience","address":"Reguliersbreestraat 22A, Amsterdam"},"geometry":{"coordinates":[4.8944382,52.3665835],"type":"Point"}},
{"type":"Feature","properties":{"name":"Club Smokey","amenity":"pub"},"geometry":{"coordinates":[4.8962329,52.3656246],"type":"Point"}},
{"type":"Feature","properties":{"addr:city":"Amsterdam","addr:housenumber":"25","addr:postcode":"1017CL","addr:street":"Reguliersbreestraat","name":"El Torado Grill","amenity":"restaurant","address":"Reguliersbreestraat 25, Amsterdam"},"geometry":{"coordinates":[4.8947159,52.3666908],"type":"Point"}},
{"type":"Feature","properties":{"name":"Kitchen & Bar Van Rijn","amenity":"pub"},"geometry":{"coordinates":[4.89674,52.3664515],"type":"Point"}},
{"type":"Feature","properties":{"name":"Coffeeshop Smokey","amenity":"pub"},"geometry":{"coordinates":[4.8963993,52.3656427],"type":"Point"}},
{"type":"Feature","properties":{"addr:city":"Amsterdam","addr:housenumber":"27","addr:postcode":"1017CL","addr:street":"Reguliersbreestraat","name":"Subway","amenity":"fast_food","address":"Reguliersbreestraat 27, Amsterdam"},"geometry":{"coordinates":[4.8948042,52.3666732],"type":"Point"}},
{"type":"Feature","properties":{"name":"Rain","amenity":"cafe"},"geometry":{"coordinates":[4.8972735,52.3657475],"type":"Point"}},
{"type":"Feature","properties":{"name":"The Old Bell","amenity":"pub"},"geometry":{"coordinates":[4.897453,52.365769],"type":"Point"}},
{"type":"Feature","properties":{"addr:city":"Amsterdam","addr:housenumber":"20","addr:postcode":"1012CP","addr:street":"Nieuwe Doelenstraat","name":"De Jaren","amenity":"restaurant","address":"Nieuwe Doelenstraat 20, Amsterdam"},"geometry":{"coordinates":[4.8953278,52.3680203],"type":"Point"}},
{"type":"Feature","properties":{"amenity":"post_box"},"geometry":{"coordinates":[4.8971748,52.3698806],"type":"Point"}},
{"type":"Feature","properties":{"name":"Café Scharrebier","amenity":"pub"},"geometry":{"coordinates":[4.9111074,52.3704414],"type":"Point"}},
{"type":"Feature","properties":{"name":"Febo","amenity":"fast_food"},"geometry":{"coordinates":[4.8669783,52.3759348],"type":"Point"}},
{"type":"Feature","properties":{"addr:city":"Amsterdam","addr:housenumber":"1","addr:postcode":"1014 DA","addr:street":"Polonceaukade","name":"De Bakkerswinkel","shop":"bakery","address":"Polonceaukade 1, Amsterdam"},"geometry":{"coordinates":[4.8746458,52.3858044],"type":"Point"}},
{"type":"Feature","properties":{"amenity":"parking"},"geometry":{"coordinates":[4.8630584,52.3915901],"type":"Point"}},
{"type":"Feature","properties":{"amenity":"post_box"},"geometry":{"coordinates":[4.9119384,52.3710959],"type":"Point"}},
{"type":"Feature","properties":{"name":"de Kluis","amenity":"restaurant"},"geometry":{"coordinates":[4.9117046,52.371134],"type":"Point"}},
{"type":"Feature","properties":{"addr:city":"Amsterdam","addr:housenumber":"2","addr:postcode":"1011TA","addr:street":"IJ-tunnel","name":"Bureau IJ-tunnel","amenity":"police","address":"IJ-tunnel 2, Amsterdam"},"geometry":{"coordinates":[4.9090989,52.3699583],"type":"Point"}},
{"type":"Feature","properties":{"name":"Kriterion","amenity":"cinema"},"geometry":{"coordinates":[4.9106624,52.3624717],"type":"Point"}},
{"type":"Feature","properties":{"amenity":"post_office"},"geometry":{"coordinates":[4.8823289,52.3521265],"type":"Point"}},
{"type":"Feature","properties":{"addr:housenumber":"1","addr:street":"Joh.M. Coenenstraat","name":"Bvd Tweewielers Zuid","shop":"bicycle"},"geometry":{"coordinates":[4.8823055,52.3523571],"type":"Point"}},
{"type":"Feature","properties":{"addr:city":"Amsterdam","addr:housenumber":"190-192","addr:postcode":"1072 LW","addr:street":"Ferdinand Bolstraat","name":"Bureau De Pijp","amenity":"police","address":"Ferdinand Bolstraat 190-192, Amsterdam"},"geometry":{"coordinates":[4.8912298,52.3498254],"type":"Point"}},
{"type":"Feature","properties":{"addr:city":"Amsterdam","addr:housenumber":"16","addr:postcode":"1012JP","addr:street":"Oudebrugsteeg","name":"The Grasshopper","amenity":"restaurant","address":"Oudebrugsteeg 16, Amsterdam"},"geometry":{"coordinates":[4.8974337,52.3754583],"type":"Point"}},
{"type":"Feature","properties":{"name":"Lust","amenity":"pub"},"geometry":{"coordinates":[4.8890862,52.3507166],"type":"Point"}},
{"type":"Feature","properties":{"name":"IJzerhandel Zuid","shop":"hardware"},"geometry":{"coordinates":[4.8894017,52.3523799],"type":"Point"}},
{"type":"Feature","properties":{"name":"Hippe","amenity":"driving_school"},"geometry":{"coordinates":[4.889075,52.3523587],"type":"Point"}},
{"type":"Feature","properties":{"name":"Nova & Kim","amenity":"restaurant"},"geometry":{"coordinates":[4.8889175,52.3526542],"type":"Point"}},
{"type":"Feature","properties":{"name":"Hermes","amenity":"pub"},"geometry":{"coordinates":[4.8892794,52.3526942],"type":"Point"}},
{"type":"Feature","properties":{"addr:city":"Amsterdam","addr:housenumber":"131","addr:postcode":"1072 LG","addr:street":"Ferdinand Bolstraat","name":"Sessions","shop":"hairdresser","address":"Ferdinand Bolstraat 131, Amsterdam"},"geometry":{"coordinates":[4.8915593,52.3520527],"type":"Point"}},
{"type":"Feature","properties":{"name":"Pearle","shop":"optician"},"geometry":{"coordinates":[4.8911179,52.3533829],"type":"Point"}},
{"type":"Feature","properties":{"addr:city":"Amsterdam","addr:housenumber":"113","addr:postcode":"1072 LE","addr:street":"Ferdinand Bolstraat","name":"Brazuca Coffee","amenity":"cafe","shop":"lighting","address":"Ferdinand Bolstraat 113, Amsterdam"},"geometry":{"coordinates":[4.8912806,52.3529767],"type":"Point"}},
{"type":"Feature","properties":{"name":"MC Meubelen","shop":"furniture"},"geometry":{"coordinates":[4.8943251,52.3533582],"type":"Point"}},
{"type":"Feature","properties":{"name":"Suncenter","shop":"tanning"},"geometry":{"coordinates":[4.8940161,52.3538039],"type":"Point"}},
{"type":"Feature","properties":{"shop":"kiosk"},"geometry":{"coordinates":[4.8939426,52.3539584],"type":"Point"}},
{"type":"Feature","properties":{"addr:city":"Amsterdam","addr:housenumber":"84-86","addr:postcode":"1072 LN","addr:street":"Ferdinand Bolstraat","name":"Etos","shop":"chemist","address":"Ferdinand Bolstraat 84-86, Amsterdam"},"geometry":{"coordinates":[4.8901421,52.3548082],"type":"Point"}},
{"type":"Feature","properties":{"amenity":"parking"},"geometry":{"coordinates":[4.8746584,52.3862556],"type":"Point"}},
{"type":"Feature","properties":{"name":"De Magere Brug","amenity":"pub"},"geometry":{"coordinates":[4.9032166,52.3636562],"type":"Point"}},
{"type":"Feature","properties":{"addr:city":"Amsterdam","addr:housenumber":"2","addr:postcode":"1101BD","addr:street":"De corridor","name":"Loungebar & Restaurant Vanzz","amenity":"restaurant","address":"De corridor 2, Amsterdam"},"geometry":{"coordinates":[4.9450524,52.3113257],"type":"Point"}},
{"type":"Feature","properties":{"amenity":"post_box"},"geometry":{"coordinates":[4.9028231,52.3644288],"type":"Point"}},
{"type":"Feature","properties":{"addr:city":"Amsterdam","addr:street":"Plantage Middenlaan","name":"Cafe Eik en Linde","amenity":"pub"},"geometry":{"coordinates":[4.9109737,52.3665415],"type":"Point"}},
{"type":"Feature","properties":{"amenity":"recycling"},"geometry":{"coordinates":[4.9028714,52.3637795],"type":"Point"}},
{"type":"Feature","properties":{"name":"SPAR","shop":"supermarket"},"geometry":{"coordinates":[4.9052746,52.3641936],"type":"Point"}},
{"type":"Feature","properties":{"name":"Water en Brood","amenity":"cafe"},"geometry":{"coordinates":[4.9058121,52.3641405],"type":"Point"}},
{"type":"Feature","properties":{"name":"Bankras","shop":"bicycle"},"geometry":{"coordinates":[4.8999699,52.3707722],"type":"Point"}},
{"type":"Feature","properties":{"amenity":"post_box"},"geometry":{"coordinates":[4.8734402,52.3695379],"type":"Point"}},
{"type":"Feature","properties":{"amenity":"post_box"},"geometry":{"coordinates":[4.874257,52.3707637],"type":"Point"}},
{"type":"Feature","properties":{"amenity":"recycling"},"geometry":{"coordinates":[4.8732202,52.3714097],"type":"Point"}},
{"type":"Feature","properties":{"amenity":"recycling"},"geometry":{"coordinates":[4.8715082,52.3707513],"type":"Point"}},
{"type":"Feature","properties":{"amenity":"post_box"},"geometry":{"coordinates":[4.8430509,52.3625576],"type":"Point"}},
{"type":"Feature","properties":{"addr:city":"Amsterdam","addr:housenumber":"1","addr:postcode":"1073 XE","addr:street":"Gerard Douplein","name":"Het Paardje","amenity":"pub","address":"Gerard Douplein 1, Amsterdam"},"geometry":{"coordinates":[4.8927389,52.3561778],"type":"Point"}},
{"type":"Feature","properties":{"name":"Bakker Bart","shop":"bakery"},"geometry":{"coordinates":[4.8908324,52.3541815],"type":"Point"}},
{"type":"Feature","properties":{"addr:city":"Amsterdam","addr:housenumber":"80","addr:street":"Sara Burgerhartstraat","name":"Lidl","shop":"supermarket","address":"Sara Burgerhartstraat 80, Amsterdam"},"geometry":{"coordinates":[4.8460083,52.3837271],"type":"Point"}},
{"type":"Feature","properties":{"addr:housenumber":"83","addr:postcode":"1011","addr:street":"Rapenburgerplein","name":"De Druif","amenity":"pub"},"geometry":{"coordinates":[4.9106387,52.3700817],"type":"Point"}},
{"type":"Feature","properties":{"addr:city":"Amsterdam","addr:housenumber":"454","addr:postcode":"1054JW","addr:street":"Overtoom","name":"ING","amenity":"atm","address":"Overtoom 454, Amsterdam"},"geometry":{"coordinates":[4.8621991,52.3596843],"type":"Point"}},
{"type":"Feature","properties":{"addr:city":"Amsterdam","addr:housenumber":"476-478","addr:postcode":"1054 JZ","addr:street":"Overtoom","name":"Avondwinkel","shop":"convenience","address":"Overtoom 476-478, Amsterdam"},"geometry":{"coordinates":[4.8608611,52.3593741],"type":"Point"}},
{"type":"Feature","properties":{"amenity":"post_box"},"geometry":{"coordinates":[4.8587476,52.3587464],"type":"Point"}},
{"type":"Feature","properties":{"amenity":"waste_disposal"},"geometry":{"coordinates":[4.8583903,52.3585718],"type":"Point"}},
{"type":"Feature","properties":{"addr:city":"Amsterdam","addr:housenumber":"216","addr:postcode":"1075 EL","addr:street":"Koninginneweg","name":"Apotheek Dr de Haan","amenity":"pharmacy","address":"Koninginneweg 216, Amsterdam"},"geometry":{"coordinates":[4.8573889,52.3518804],"type":"Point"}},
{"type":"Feature","properties":{"amenity":"recycling"},"geometry":{"coordinates":[4.855371,52.3541072],"type":"Point"}},
{"type":"Feature","properties":{"amenity":"recycling"},"geometry":{"coordinates":[4.8599595,52.3522391],"type":"Point"}},
{"type":"Feature","properties":{"addr:city":"Amsterdam","addr:housenumber":"1","addr:postcode":"1059 CS","addr:street":"Hoofddorpweg","name":"Schinkel Apotheek","amenity":"pharmacy","address":"Hoofddorpweg 1, Amsterdam"},"geometry":{"coordinates":[4.8516668,52.3508521],"type":"Point"}},
{"type":"Feature","properties":{"addr:city":"Amsterdam","addr:housenumber":"3","addr:postcode":"1071 CX","addr:street":"Paulus Potterstraat","name":"Museumshop","shop":"gift","address":"Paulus Potterstraat 3, Amsterdam"},"geometry":{"coordinates":[4.8836668,52.3592883],"type":"Point"}},
{"type":"Feature","properties":{"addr:city":"Amsterdam","addr:housenumber":"18","addr:postcode":"1071 ZB","addr:street":"Hobbemastraat","name":"Cobra Café","amenity":"pub","address":"Hobbemastraat 18, Amsterdam"},"geometry":{"coordinates":[4.8842999,52.3589397],"type":"Point"}},
{"type":"Feature","properties":{"amenity":"toilets"},"geometry":{"coordinates":[4.8845506,52.3589253],"type":"Point"}},
{"type":"Feature","properties":{"addr:city":"Amsterdam","addr:housenumber":"16","addr:postcode":"1076 DN","addr:street":"Laan der Hesperiden","name":"Bibl. Olympisch Kwartier","amenity":"library","address":"Laan der Hesperiden 16, Amsterdam"},"geometry":{"coordinates":[4.85578,52.3453125],"type":"Point"}},
{"type":"Feature","properties":{"addr:city":"Amsterdam","addr:housenumber":"31","addr:postcode":"1066AH","addr:street":"Johanna Reynvaanstraat","name":"Antoni van Leeuwenhoek","amenity":"hospital","address":"Johanna Reynvaanstraat 31, Amsterdam"},"geometry":{"coordinates":[4.8255487,52.3497107],"type":"Point"}},
{"type":"Feature","properties":{"addr:city":"Amsterdam","addr:housenumber":"568","addr:street":"Prinsengracht","name":"Café Heuvel","amenity":"cafe","address":"Prinsengracht 568, Amsterdam"},"geometry":{"coordinates":[4.8879212,52.3624354],"type":"Point"}},
{"type":"Feature","properties":{"addr:city":"Amsterdam","addr:housenumber":"103","addr:postcode":"1059 AG","addr:street":"Aalsmeerweg","name":"Retort","amenity":"arts_centre","address":"Aalsmeerweg 103, Amsterdam"},"geometry":{"coordinates":[4.8478748,52.3477964],"type":"Point"}},
{"type":"Feature","properties":{"amenity":"fountain"},"geometry":{"coordinates":[4.8656343,52.3502348],"type":"Point"}},
{"type":"Feature","properties":{"name":"Gruter","amenity":"pub"},"geometry":{"coordinates":[4.8749907,52.3570184],"type":"Point"}},
{"type":"Feature","properties":{"amenity":"recycling"},"geometry":{"coordinates":[4.8642986,52.3527809],"type":"Point"}},
{"type":"Feature","properties":{"name":"de Levante","amenity":"arts_centre"},"geometry":{"coordinates":[4.8861493,52.3586056],"type":"Point"}},
{"type":"Feature","properties":{"addr:city":"Amsterdam","addr:housenumber":"1","addr:postcode":"1058 TV","addr:street":"Theophile de Bockstraat","name":"Gent","amenity":"pub","address":"Theophile de Bockstraat 1, Amsterdam"},"geometry":{"coordinates":[4.8530144,52.3546759],"type":"Point"}},
{"type":"Feature","properties":{"name":"Kamerz","amenity":"pub"},"geometry":{"coordinates":[4.8744439,52.3842987],"type":"Point"}},
{"type":"Feature","properties":{"addr:city":"Amsterdam","addr:housenumber":"6","addr:postcode":"1051PA","addr:street":"Watertorenplein","name":"Café-Restaurant Amsterdam","amenity":"restaurant","address":"Watertorenplein 6, Amsterdam"},"geometry":{"coordinates":[4.8682145,52.3842205],"type":"Point"}},
{"type":"Feature","properties":{"addr:city":"Amsterdam","addr:housenumber":"32","addr:postcode":"1051 CH","addr:street":"Van Slingelandtstraat","name":"Praxis Amsterdam Westerpark","shop":"doityourself","address":"Van Slingelandtstraat 32, Amsterdam"},"geometry":{"coordinates":[4.8660312,52.384266],"type":"Point"}},
{"type":"Feature","properties":{"addr:city":"Amsterdam","addr:housenumber":"1","addr:postcode":"1071 TR","addr:street":"Roelof Hartplein","name":"Wildschut","amenity":"pub","address":"Roelof Hartplein 1, Amsterdam"},"geometry":{"coordinates":[4.8824008,52.3534426],"type":"Point"}},
{"type":"Feature","properties":{"addr:city":"Amsterdam","addr:housenumber":"36","addr:postcode":"1077 WX","addr:street":"Prinses Irenestraat","name":"Thomaskerk","amenity":"place_of_worship","address":"Prinses Irenestraat 36, Amsterdam"},"geometry":{"coordinates":[4.8748262,52.342086],"type":"Point"}},
{"type":"Feature","properties":{"name":"Al Ponte","amenity":"cafe"},"geometry":{"coordinates":[4.9082272,52.381905],"type":"Point"}},
{"type":"Feature","properties":{"addr:city":"Amsterdam","addr:housenumber":"1","addr:postcode":"1021 PX","addr:street":"Noordwal","name":"Dok du Nord","amenity":"restaurant","address":"Noordwal 1, Amsterdam"},"geometry":{"coordinates":[4.9128268,52.3811001],"type":"Point"}},
{"type":"Feature","properties":{"addr:city":"Amsterdam","addr:housenumber":"76","addr:postcode":"1021JK","addr:street":"Meeuwenlaan","name":"Dirk van den Broek","shop":"supermarket","address":"Meeuwenlaan 76, Amsterdam"},"geometry":{"coordinates":[4.9181125,52.3847281],"type":"Point"}},
{"type":"Feature","properties":{"addr:city":"Amsterdam","addr:housenumber":"80","addr:postcode":"1058 NP","addr:street":"Heemstedestraat","name":"Cedars","amenity":"restaurant","address":"Heemstedestraat 80, Amsterdam"},"geometry":{"coordinates":[4.8444223,52.3519506],"type":"Point"}},
{"type":"Feature","properties":{"amenity":"post_box"},"geometry":{"coordinates":[4.909212,52.3377131],"type":"Point"}},
{"type":"Feature","properties":{"addr:city":"Amsterdam","addr:housenumber":"2","addr:postcode":"1071AA","addr:street":"Vondelpark","name":"Groot Melkhuis","amenity":"cafe","address":"Vondelpark 2, Amsterdam"},"geometry":{"coordinates":[4.8683025,52.3585322],"type":"Point"}},
{"type":"Feature","properties":{"amenity":"post_box"},"geometry":{"coordinates":[4.9362474,52.3334807],"type":"Point"}},
{"type":"Feature","properties":{"amenity":"post_box"},"geometry":{"coordinates":[4.9389677,52.3329255],"type":"Point"}},
{"type":"Feature","properties":{"amenity":"recycling"},"geometry":{"coordinates":[4.9362078,52.3330167],"type":"Point"}},
{"type":"Feature","properties":{"amenity":"recycling"},"geometry":{"coordinates":[4.9264107,52.3385321],"type":"Point"}},
{"type":"Feature","properties":{"amenity":"post_box"},"geometry":{"coordinates":[4.9272954,52.3377586],"type":"Point"}},
{"type":"Feature","properties":{"name":"Begijnhofkapel (RK)","amenity":"place_of_worship"},"geometry":{"coordinates":[4.8896053,52.3692964],"type":"Point"}},
{"type":"Feature","properties":{},"geometry":{"coordinates":[4.8922306,52.3675568],"type":"Point"}},
{"type":"Feature","properties":{},"geometry":{"coordinates":[4.89138,52.3671831],"type":"Point"}},
{"type":"Feature","properties":{"amenity":"post_box"},"geometry":{"coordinates":[4.9053737,52.335363],"type":"Point"}},
{"type":"Feature","properties":{"name":"Kunstkerk","amenity":"arts_centre"},"geometry":{"coordinates":[4.8867391,52.3854142],"type":"Point"}},
{"type":"Feature","properties":{"amenity":"post_box"},"geometry":{"coordinates":[4.8696478,52.3247822],"type":"Point"}},
{"type":"Feature","properties":{"amenity":"post_box"},"geometry":{"coordinates":[4.8684187,52.3308538],"type":"Point"}},
{"type":"Feature","properties":{"amenity":"post_box"},"geometry":{"coordinates":[4.8581686,52.3277365],"type":"Point"}},
{"type":"Feature","properties":{"name":"Moods","amenity":"pub"},"geometry":{"coordinates":[4.8806733,52.3794724],"type":"Point"}},
{"type":"Feature","properties":{"amenity":"post_box"},"geometry":{"coordinates":[4.8812177,52.3778592],"type":"Point"}},
{"type":"Feature","properties":{"addr:city":"Amsterdam","addr:housenumber":"19","addr:postcode":"1077 WT","addr:street":"Prinses Irenestraat","name":"As","amenity":"restaurant","address":"Prinses Irenestraat 19, Amsterdam"},"geometry":{"coordinates":[4.8802689,52.3415463],"type":"Point"}},
{"type":"Feature","properties":{"amenity":"bicycle_parking"},"geometry":{"coordinates":[4.9024724,52.3775354],"type":"Point"}},
{"type":"Feature","properties":{"addr:housenumber":"63A","addr:street":"Oosterdokskade","name":"MacBike Oosterdokskade","amenity":"bicycle_rental"},"geometry":{"coordinates":[4.9067875,52.3760478],"type":"Point"}},
{"type":"Feature","properties":{"addr:city":"Amsterdam","addr:housenumber":"143","addr:postcode":"1011 AC","addr:street":"De Ruijterkade","name":"Starbikes","amenity":"bicycle_rental","address":"De Ruijterkade 143, Amsterdam"},"geometry":{"coordinates":[4.9080895,52.3774607],"type":"Point"}},
{"type":"Feature","properties":{"amenity":"post_box"},"geometry":{"coordinates":[4.8786492,52.3583085],"type":"Point"}},
{"type":"Feature","properties":{"name":"Croissanterie 'Commelin'","shop":"bakery"},"geometry":{"coordinates":[4.926314,52.363867],"type":"Point"}},
{"type":"Feature","properties":{"name":"Ooster-parking","amenity":"parking"},"geometry":{"coordinates":[4.9164625,52.3587502],"type":"Point"}},
{"type":"Feature","properties":{"addr:city":"Amsterdam","addr:housenumber":"16","addr:postcode":"1012NP","addr:street":"Dam","name":"Rabobank","amenity":"bank","address":"Dam 16, Amsterdam"},"geometry":{"coordinates":[4.8919039,52.3726379],"type":"Point"}},
{"type":"Feature","properties":{"name":"P+R Olympisch Stadion","amenity":"parking"},"geometry":{"coordinates":[4.8550786,52.3445977],"type":"Point"}},
{"type":"Feature","properties":{"amenity":"post_box"},"geometry":{"coordinates":[4.9419889,52.3350723],"type":"Point"}},
{"type":"Feature","properties":{"amenity":"recycling"},"geometry":{"coordinates":[4.9233514,52.3420374],"type":"Point"}},
{"type":"Feature","properties":{"amenity":"recycling"},"geometry":{"coordinates":[4.9261182,52.342068],"type":"Point"}},
{"type":"Feature","properties":{"shop":"snacks"},"geometry":{"coordinates":[4.9158323,52.3668326],"type":"Point"}},
{"type":"Feature","properties":{"shop":"snacks"},"geometry":{"coordinates":[4.9138909,52.3664961],"type":"Point"}},
{"type":"Feature","properties":{"shop":"snacks"},"geometry":{"coordinates":[4.9203454,52.3653611],"type":"Point"}},
{"type":"Feature","properties":{"shop":"snacks"},"geometry":{"coordinates":[4.9182817,52.3649422],"type":"Point"}},
{"type":"Feature","properties":{"name":"Planetariumcafé","amenity":"cafe"},"geometry":{"coordinates":[4.9131881,52.3673089],"type":"Point"}},
{"type":"Feature","properties":{"shop":"snacks"},"geometry":{"coordinates":[4.9187776,52.3655851],"type":"Point"}},
{"type":"Feature","properties":{"name":"de Appel","amenity":"arts_centre"},"geometry":{"coordinates":[4.8897178,52.3648025],"type":"Point"}},
{"type":"Feature","properties":{"name":"AFAS Live","amenity":"theatre"},"geometry":{"coordinates":[4.9442166,52.3122606],"type":"Point"}},
{"type":"Feature","properties":{"amenity":"taxi"},"geometry":{"coordinates":[4.9160742,52.3590317],"type":"Point"}},
{"type":"Feature","properties":{"amenity":"recycling"},"geometry":{"coordinates":[4.938047,52.3329066],"type":"Point"}},
{"type":"Feature","properties":{"amenity":"recycling"},"geometry":{"coordinates":[4.9405047,52.3329],"type":"Point"}},
{"type":"Feature","properties":{"amenity":"recycling"},"geometry":{"coordinates":[4.93947,52.3323272],"type":"Point"}},
{"type":"Feature","properties":{"amenity":"recycling"},"geometry":{"coordinates":[4.9425997,52.3325998],"type":"Point"}},
{"type":"Feature","properties":{"addr:city":"Amsterdam","addr:housenumber":"35","addr:postcode":"1076 DE","addr:street":"Olympisch Stadion","name":"Harbour Club Café","amenity":"restaurant","address":"Olympisch Stadion 35, Amsterdam"},"geometry":{"coordinates":[4.854536,52.3424865],"type":"Point"}},
{"type":"Feature","properties":{"amenity":"post_office"},"geometry":{"coordinates":[4.8411454,52.353663],"type":"Point"}},
{"type":"Feature","properties":{"name":"Sphinx","amenity":"fast_food"},"geometry":{"coordinates":[4.9231091,52.3685263],"type":"Point"}},
{"type":"Feature","properties":{"name":"Il Forno","amenity":"restaurant"},"geometry":{"coordinates":[4.9217468,52.3689488],"type":"Point"}},
{"type":"Feature","properties":{"name":"Waaghals","amenity":"restaurant"},"geometry":{"coordinates":[4.8890623,52.3571106],"type":"Point"}},
{"type":"Feature","properties":{"amenity":"post_box"},"geometry":{"coordinates":[4.9090627,52.3975971],"type":"Point"}},
{"type":"Feature","properties":{"amenity":"post_box"},"geometry":{"coordinates":[4.9053582,52.3993907],"type":"Point"}},
{"type":"Feature","properties":{"amenity":"post_box"},"geometry":{"coordinates":[4.8949327,52.4033251],"type":"Point"}},
{"type":"Feature","properties":{"amenity":"post_box"},"geometry":{"coordinates":[4.8928652,52.4078774],"type":"Point"}},
{"type":"Feature","properties":{"amenity":"post_box"},"geometry":{"coordinates":[4.8922636,52.4110398],"type":"Point"}},
{"type":"Feature","properties":{"amenity":"post_box"},"geometry":{"coordinates":[4.8866019,52.4122727],"type":"Point"}},
{"type":"Feature","properties":{"amenity":"post_box"},"geometry":{"coordinates":[4.884929,52.4149025],"type":"Point"}},
{"type":"Feature","properties":{"amenity":"post_box"},"geometry":{"coordinates":[4.8796713,52.4157284],"type":"Point"}},
{"type":"Feature","properties":{"amenity":"post_box"},"geometry":{"coordinates":[4.8988976,52.4155901],"type":"Point"}},
{"type":"Feature","properties":{"amenity":"post_box"},"geometry":{"coordinates":[4.8780074,52.4125909],"type":"Point"}},
{"type":"Feature","properties":{"addr:housenumber":"98E","addr:postcode":"1093BZ","addr:street":"Dapperstraat","name":"De Jonge - van de Vusse","shop":"convenience"},"geometry":{"coordinates":[4.9283665,52.3609121],"type":"Point"}},
{"type":"Feature","properties":{"amenity":"fountain"},"geometry":{"coordinates":[4.9388534,52.3638868],"type":"Point"}},
{"type":"Feature","properties":{"amenity":"post_box"},"geometry":{"coordinates":[4.8999849,52.3801784],"type":"Point"}},
{"type":"Feature","properties":{"amenity":"recycling"},"geometry":{"coordinates":[4.8853185,52.4218684],"type":"Point"}},
{"type":"Feature","properties":{"addr:city":"Amsterdam","addr:housenumber":"30","addr:postcode":"1015 DD","addr:street":"Prinsenstraat","name":"Vergulde Gaper","amenity":"pub","address":"Prinsenstraat 30, Amsterdam"},"geometry":{"coordinates":[4.8865875,52.3780018],"type":"Point"}},
{"type":"Feature","properties":{"amenity":"post_box"},"geometry":{"coordinates":[4.8804618,52.4177661],"type":"Point"}},
{"type":"Feature","properties":{"amenity":"recycling"},"geometry":{"coordinates":[4.8804964,52.4177491],"type":"Point"}},
{"type":"Feature","properties":{"amenity":"recycling"},"geometry":{"coordinates":[4.8784169,52.4184113],"type":"Point"}},
{"type":"Feature","properties":{"amenity":"post_box"},"geometry":{"coordinates":[4.8929258,52.4175315],"type":"Point"}},
{"type":"Feature","properties":{"addr:housenumber":"3002","addr:street":"H.J.E. Wenckebachweg","name":"Eetcafe de Keet","amenity":"cafe"},"geometry":{"coordinates":[4.9264159,52.3383283],"type":"Point"}},
{"type":"Feature","properties":{"addr:city":"Amsterdam","addr:housenumber":"3000","addr:postcode":"1096 DP","addr:street":"H.J.E. Wenckebachweg","name":"Supermarkt De Keet","shop":"supermarket","address":"H.J.E. Wenckebachweg 3000, Amsterdam"},"geometry":{"coordinates":[4.9262096,52.3385217],"type":"Point"}},
{"type":"Feature","properties":{"name":"Low budget tweewielers","shop":"bicycle"},"geometry":{"coordinates":[4.9262657,52.3385077],"type":"Point"}},
{"type":"Feature","properties":{"addr:city":"Duivendrecht","addr:housenumber":"75","addr:postcode":"1115CX","addr:street":"Dorpsplein","name":"Jan en Jan","amenity":"fast_food","address":"Dorpsplein 75, Duivendrecht"},"geometry":{"coordinates":[4.9395639,52.3327384],"type":"Point"}},
{"type":"Feature","properties":{"amenity":"parking"},"geometry":{"coordinates":[4.7777076,52.3391043],"type":"Point"}},
{"type":"Feature","properties":{"addr:city":"Amsterdam","addr:housenumber":"1","addr:postcode":"1043AX","addr:street":"Luvernes","name":"Praxis Megastore Amsterdam Westpoort","shop":"doityourself","address":"Luvernes 1, Amsterdam"},"geometry":{"coordinates":[4.8047705,52.392027],"type":"Point"}},
{"type":"Feature","properties":{"name":"Bridges","amenity":"restaurant"},"geometry":{"coordinates":[4.895255,52.3709275],"type":"Point"}},
{"type":"Feature","properties":{"addr:city":"Amsterdam","addr:housenumber":"1110","addr:postcode":"1081 HZ","addr:street":"De Boelelaan","name":"Albert Heijn to go","shop":"convenience","address":"De Boelelaan 1110, Amsterdam"},"geometry":{"coordinates":[4.859908,52.3354568],"type":"Point"}},
{"type":"Feature","properties":{"addr:city":"Amsterdam","addr:housenumber":"430","addr:postcode":"1071 TT","addr:street":"Roelof Hartplein","name":"Bibliotheek Roelof Hartplein","amenity":"library","address":"Roelof Hartplein 430, Amsterdam"},"geometry":{"coordinates":[4.8825724,52.3525874],"type":"Point"}},
{"type":"Feature","properties":{"addr:city":"Amsterdam","addr:housenumber":"226","addr:postcode":"1075 XT","addr:street":"Amstelveenseweg","name":"café Bos","amenity":"pub","address":"Amstelveenseweg 226, Amsterdam"},"geometry":{"coordinates":[4.856578,52.3509324],"type":"Point"}},
{"type":"Feature","properties":{"amenity":"fountain"},"geometry":{"coordinates":[4.8405059,52.3494544],"type":"Point"}},
{"type":"Feature","properties":{"name":"Stadsdeel Nieuw-West","amenity":"townhall"},"geometry":{"coordinates":[4.8210456,52.3790239],"type":"Point"}},
{"type":"Feature","properties":{"addr:city":"Amsterdam","addr:housenumber":"32","addr:postcode":"1077 VW","addr:street":"Richard Wagnerstraat","name":"Christian Science","amenity":"place_of_worship","address":"Richard Wagnerstraat 32, Amsterdam"},"geometry":{"coordinates":[4.8790271,52.3462481],"type":"Point"}},
{"type":"Feature","properties":{"addr:city":"Amsterdam","addr:housenumber":"38","addr:postcode":"1077 EE","addr:street":"Gerrit van der Veenstraat","name":"Lutherkapel","amenity":"place_of_worship","address":"Gerrit van der Veenstraat 38, Amsterdam"},"geometry":{"coordinates":[4.8795321,52.3489628],"type":"Point"}},
{"type":"Feature","properties":{"amenity":"post_box"},"geometry":{"coordinates":[4.8251583,52.3424381],"type":"Point"}},
{"type":"Feature","properties":{"addr:city":"Amsterdam","addr:housenumber":"7","addr:postcode":"1018 AL","addr:street":"Funenkade","name":"Brouwerij 't IJ","amenity":"pub","address":"Funenkade 7, Amsterdam"},"geometry":{"coordinates":[4.9263454,52.3666601],"type":"Point"}},
{"type":"Feature","properties":{"name":"Rai Theater","amenity":"theatre"},"geometry":{"coordinates":[4.8878971,52.3416799],"type":"Point"}},
{"type":"Feature","properties":{"name":"RAI Amsterdam","amenity":"conference_centre"},"geometry":{"coordinates":[4.8891098,52.3417982],"type":"Point"}},
{"type":"Feature","properties":{"name":"Dirk van den Broek","shop":"supermarket"},"geometry":{"coordinates":[4.8922495,52.3571729],"type":"Point"}},
{"type":"Feature","properties":{"addr:city":"Amsterdam","addr:housenumber":"172","addr:postcode":"1072 LT","addr:street":"Ferdinand Bolstraat","name":"Ferdinand Deegspecialiteiten","amenity":"fast_food","address":"Ferdinand Bolstraat 172, Amsterdam"},"geometry":{"coordinates":[4.8911783,52.3516358],"type":"Point"}},